country,state,city,station,last_update,latitude,longitude,pollutant_id,pollutant_min,pollutant_max,pollutant_avg
India,Andhra_Pradesh,Chittoor,"Gangineni Cheruvu, Chittoor - APPCB","10-03-2025 23:00:00",13.204880,79.097889,NH3,3,5,4
India,Andhra_Pradesh,Kadapa,"Yerramukkapalli, Kadapa - APPCB","10-03-2025 23:00:00",14.465052,78.824187,NO2,NA,NA,NA
India,Andhra_Pradesh,Kadapa,"Yerramukkapalli, Kadapa - APPCB","10-03-2025 23:00:00",14.465052,78.824187,SO2,NA,NA,NA
India,Andhra_Pradesh,Rajamahendravaram,"Anand Kala Kshetram, Rajamahendravaram - APPCB","10-03-2025 23:00:00",16.9872867,81.7363176,NH3,4,8,5
India,Andhra_Pradesh,Rajamahendravaram,"Anand Kala Kshetram, Rajamahendravaram - APPCB","10-03-2025 23:00:00",16.9872867,81.7363176,SO2,10,19,13
India,Andhra_Pradesh,Tirupati,"Vaikuntapuram, Tirupati - APPCB","10-03-2025 23:00:00",13.615387,79.409230,PM10,NA,NA,NA
India,Andhra_Pradesh,Amaravati,"Secretariat, Amaravati - APPCB","10-03-2025 23:00:00",16.5150833,80.5181667,CO,6,106,62
India,Andhra_Pradesh,Amaravati,"Secretariat, Amaravati - APPCB","10-03-2025 23:00:00",16.5150833,80.5181667,OZONE,16,65,46
India,Andhra_Pradesh,Anantapur,"Gulzarpet, Anantapur - APPCB","10-03-2025 23:00:00",14.675886,77.593027,NH3,4,6,5
India,Andhra_Pradesh,Anantapur,"Gulzarpet, Anantapur - APPCB","10-03-2025 23:00:00",14.675886,77.593027,CO,4,7,5
India,Andhra_Pradesh,Chittoor,"Gangineni Cheruvu, Chittoor - APPCB","10-03-2025 23:00:00",13.204880,79.097889,PM2.5,24,152,72
India,Andhra_Pradesh,Chittoor,"Gangineni Cheruvu, Chittoor - APPCB","10-03-2025 23:00:00",13.204880,79.097889,NO2,7,17,15
India,Assam,Guwahati,"Pan Bazaar, Guwahati - PCBA","10-03-2025 23:00:00",26.187500,91.744194,PM10,84,152,116
India,Assam,Guwahati,"Railway Colony, Guwahati - PCBA","10-03-2025 23:00:00",26.181742,91.78063,NO2,3,3,3
India,Assam,Nagaon,"Christianpatty, Nagaon - PCBA","10-03-2025 23:00:00",26.349082,92.68449,PM10,48,187,100
India,Assam,Nagaon,"Christianpatty, Nagaon - PCBA","10-03-2025 23:00:00",26.349082,92.68449,OZONE,1,73,43
India,Assam,Nalbari,"Bata Chowk, Nalbari - PCBA","10-03-2025 23:00:00",26.446912,91.439057,PM2.5,NA,NA,NA
India,Assam,Nalbari,"Bata Chowk, Nalbari - PCBA","10-03-2025 23:00:00",26.446912,91.439057,PM10,NA,NA,NA
India,Bihar,Bettiah,"Kamalnath Nagar, Bettiah - BSPCB","10-03-2025 23:00:00",26.80365,84.51954,NO2,27,29,28
India,Bihar,Bhagalpur,"DM Office_Kachari Chowk, Bhagalpur - BSPCB","10-03-2025 23:00:00",25.251013,86.989001,SO2,NA,NA,NA
India,Bihar,Bhagalpur,"DM Office_Kachari Chowk, Bhagalpur - BSPCB","10-03-2025 23:00:00",25.251013,86.989001,CO,12,80,55
India,Bihar,Bhagalpur,"Mayaganj, Bhagalpur - BSPCB","10-03-2025 23:00:00",25.265194,87.012947,PM10,NA,NA,NA
India,Bihar,Buxar,"Charitra Van, Buxar - BSPCB","10-03-2025 23:00:00",25.567520,83.966379,NO2,NA,NA,NA
India,Andhra_Pradesh,Tirupati,"Vaikuntapuram, Tirupati - APPCB","10-03-2025 23:00:00",13.615387,79.409230,OZONE,49,49,49
India,Andhra_Pradesh,Vijayawada,"HB Colony, Vijayawada - APPCB","10-03-2025 23:00:00",16.536107,80.594233,NO2,9,11,10
India,Andhra_Pradesh,Vijayawada,"HB Colony, Vijayawada - APPCB","10-03-2025 23:00:00",16.536107,80.594233,NH3,2,4,3
India,Andhra_Pradesh,Vijayawada,"HB Colony, Vijayawada - APPCB","10-03-2025 23:00:00",16.536107,80.594233,CO,22,34,30
India,Andhra_Pradesh,Vijayawada,"Rajiv Gandhi Park, Vijayawada - APPCB","10-03-2025 23:00:00",16.509717,80.612222,PM10,63,93,82
India,Bihar,Araria,"Kharahiya Basti, Araria - BSPCB","10-03-2025 23:00:00",26.146529,87.454184,NH3,4,4,4
India,Bihar,Arrah,"New DM Office, Arrah - BSPCB","10-03-2025 23:00:00",25.5626095,84.663264,PM2.5,37,170,91
India,Bihar,Arrah,"New DM Office, Arrah - BSPCB","10-03-2025 23:00:00",25.5626095,84.663264,NO2,6,9,7
India,Bihar,Aurangabad,"Gurdeo Nagar, Aurangabad - BSPCB","10-03-2025 23:00:00",24.75746,84.366208,NH3,1,1,1
India,Andhra_Pradesh,Vijayawada,"Rajiv Gandhi Park, Vijayawada - APPCB","10-03-2025 23:00:00",16.509717,80.612222,CO,34,44,35
India,Andhra_Pradesh,Vijayawada,"Rajiv Gandhi Park, Vijayawada - APPCB","10-03-2025 23:00:00",16.509717,80.612222,OZONE,1,31,17
India,Andhra_Pradesh,Vijayawada,"Rajiv Nagar, Vijayawada - APPCB","10-03-2025 23:00:00",16.554731,80.649110,PM10,46,59,53
India,Assam,Byrnihat,"Central Academy for SFS, Byrnihat - PCBA","10-03-2025 23:00:00",26.071318,91.87488,CO,34,66,49
India,Assam,Guwahati,"LGBI Airport, Guwahati - PCBA","10-03-2025 23:00:00",26.10887,91.589544,PM10,101,452,242
India,Bihar,Buxar,"Charitra Van, Buxar - BSPCB","10-03-2025 23:00:00",25.567520,83.966379,NH3,NA,NA,NA
India,Bihar,Hajipur,"Industrial Area, Hajipur - BSPCB","10-03-2025 23:00:00",25.697189,85.245900,NH3,7,15,10
India,Bihar,Hajipur,"Industrial Area, Hajipur - BSPCB","10-03-2025 23:00:00",25.697189,85.245900,CO,14,48,32
India,Assam,Silchar,"Tarapur, Silchar - PCBA","10-03-2025 23:00:00",24.82827,92.79525,NO2,8,26,13
India,Assam,Silchar,"Tarapur, Silchar - PCBA","10-03-2025 23:00:00",24.82827,92.79525,OZONE,1,36,11
India,Bihar,Motihari,"Gandak Colony, Motihari - BSPCB","10-03-2025 23:00:00",26.63086,84.90051,CO,25,101,65
India,Bihar,Motihari,"Gandak Colony, Motihari - BSPCB","10-03-2025 23:00:00",26.63086,84.90051,OZONE,12,14,13
India,Bihar,Munger,"Town Hall, Munger - BSPCB","10-03-2025 23:00:00",25.376776,86.471523,SO2,16,30,24
India,Bihar,Muzaffarpur,"Buddha Colony, Muzaffarpur - BSPCB","10-03-2025 23:00:00",26.11442,85.39813,PM2.5,104,315,246
India,Bihar,Muzaffarpur,"MIT-Daudpur Kothi, Muzaffarpur - BSPCB","10-03-2025 23:00:00",26.1403345,85.3650192,NO2,9,12,9
India,Bihar,Muzaffarpur,"MIT-Daudpur Kothi, Muzaffarpur - BSPCB","10-03-2025 23:00:00",26.1403345,85.3650192,CO,84,110,97
India,Bihar,Muzaffarpur,"Muzaffarpur Collectorate, Muzaffarpur - BSPCB","10-03-2025 23:00:00",26.1209,85.3647,SO2,4,10,5
India,Chhattisgarh,Bhilai,"32Bungalows, Bhilai - CECB","10-03-2025 23:00:00",21.194815,81.314770,PM2.5,51,91,64
India,Chhattisgarh,Bhilai,"Civic Center, Bhilai - Bhilai Steel Plant","10-03-2025 23:00:00",21.185571,81.343175,PM2.5,17,83,40
India,Chhattisgarh,Bhilai,"Civic Center, Bhilai - Bhilai Steel Plant","10-03-2025 23:00:00",21.185571,81.343175,PM10,38,138,79
India,Chhattisgarh,Bhilai,"Civic Center, Bhilai - Bhilai Steel Plant","10-03-2025 23:00:00",21.185571,81.343175,OZONE,7,48,25
India,Chhattisgarh,Bhilai,"Hathkhoj, Bhilai - CECB","10-03-2025 23:00:00",21.224231,81.408350,SO2,40,129,84
India,Chhattisgarh,Bilaspur,"Mangala, Bilaspur - NTPC","10-03-2025 23:00:00",22.08815,82.13737,NO2,21,48,29
India,Bihar,Sasaram,"Dada Peer, Sasaram - BSPCB","10-03-2025 23:00:00",24.952822,84.002396,PM2.5,85,348,259
India,Bihar,Sasaram,"Dada Peer, Sasaram - BSPCB","10-03-2025 23:00:00",24.952822,84.002396,OZONE,6,16,10
India,Chandigarh,Chandigarh,"Sector 22, Chandigarh - CPCC","10-03-2025 23:00:00",30.735567,76.775714,PM10,28,193,82
India,Chandigarh,Chandigarh,"Sector 22, Chandigarh - CPCC","10-03-2025 23:00:00",30.735567,76.775714,NO2,24,165,57
India,Chandigarh,Chandigarh,"Sector 22, Chandigarh - CPCC","10-03-2025 23:00:00",30.735567,76.775714,SO2,13,34,20
India,Chandigarh,Chandigarh,"Sector 22, Chandigarh - CPCC","10-03-2025 23:00:00",30.735567,76.775714,OZONE,3,192,89
India,Bihar,Patna,"Govt. High School Shikarpur, Patna - BSPCB","10-03-2025 23:00:00",25.592539,85.227158,OZONE,14,33,22
India,Bihar,Patna,"IGSC Planetarium Complex, Patna - BSPCB","10-03-2025 23:00:00",25.610369,85.132568,SO2,6,11,8
India,Bihar,Patna,"Rajbansi Nagar, Patna - BSPCB","10-03-2025 23:00:00",25.599486,85.113666,SO2,8,19,13
India,Bihar,Patna,"Samanpura, Patna - BSPCB","10-03-2025 23:00:00",25.596727,85.085624,NH3,NA,NA,NA
India,Bihar,Purnia,"Mariam Nagar, Purnia - BSPCB","10-03-2025 23:00:00",25.366336,87.117468,NO2,10,23,16
India,Bihar,Saharsa,"Police Line, Saharsa - BSPCB","10-03-2025 23:00:00",25.892357,86.590325,NO2,NA,NA,NA
India,Bihar,Samastipur,"DM Office_Kasipur, Samastipur - BSPCB","10-03-2025 23:00:00",25.859655,85.77944,PM2.5,NA,NA,NA
India,Bihar,Samastipur,"DM Office_Kasipur, Samastipur - BSPCB","10-03-2025 23:00:00",25.859655,85.77944,NH3,NA,NA,NA
India,Bihar,Samastipur,"DM Office_Kasipur, Samastipur - BSPCB","10-03-2025 23:00:00",25.859655,85.77944,SO2,NA,NA,NA
India,Bihar,Manguraha,"Forest Rest House, Manguraha - BSPCB","10-03-2025 23:00:00",27.308328,84.531742,SO2,5,7,6
India,Bihar,Motihari,"Gandak Colony, Motihari - BSPCB","10-03-2025 23:00:00",26.63086,84.90051,PM2.5,NA,NA,NA
India,Bihar,Motihari,"Gandak Colony, Motihari - BSPCB","10-03-2025 23:00:00",26.63086,84.90051,NO2,22,36,29
India,Bihar,Motihari,"Gandak Colony, Motihari - BSPCB","10-03-2025 23:00:00",26.63086,84.90051,SO2,NA,NA,NA
India,Bihar,Patna,"DRM Office Danapur, Patna - BSPCB","10-03-2025 23:00:00",25.586562,85.043586,NH3,2,3,3
India,Bihar,Patna,"Govt. High School Shikarpur, Patna - BSPCB","10-03-2025 23:00:00",25.592539,85.227158,PM2.5,90,173,135
India,Bihar,Patna,"Govt. High School Shikarpur, Patna - BSPCB","10-03-2025 23:00:00",25.592539,85.227158,NO2,6,17,9
India,Bihar,Patna,"Govt. High School Shikarpur, Patna - BSPCB","10-03-2025 23:00:00",25.592539,85.227158,NH3,5,6,6
India,Chhattisgarh,Chhal,"Nawapara SECL Colony, Chhal - CECB","10-03-2025 23:00:00",22.118125,83.140608,CO,39,76,57
India,Chhattisgarh,Korba,"Rampur, Korba - CECB","10-03-2025 23:00:00",22.368195,82.746431,NO2,32,75,42
India,Bihar,Katihar,"Mirchaibari, Katihar - BSPCB","10-03-2025 23:00:00",25.560083,87.553265,PM10,29,92,56
India,Bihar,Katihar,"Mirchaibari, Katihar - BSPCB","10-03-2025 23:00:00",25.560083,87.553265,NO2,11,17,14
India,Bihar,Katihar,"Mirchaibari, Katihar - BSPCB","10-03-2025 23:00:00",25.560083,87.553265,CO,15,48,30
India,Chhattisgarh,Korba,"Rampur, Korba - CECB","10-03-2025 23:00:00",22.368195,82.746431,SO2,23,95,36
India,Chhattisgarh,Korba,"Urja Nagar, Korba - CECB","10-03-2025 23:00:00",22.348441,82.549611,CO,20,42,30
India,Chhattisgarh,Korba,"Urja Nagar, Korba - CECB","10-03-2025 23:00:00",22.348441,82.549611,OZONE,35,36,36
India,Chhattisgarh,Kunjemura,"OP Jindal School, Kunjemura - CECB","10-03-2025 23:00:00",22.126650,83.483212,NO2,27,71,46
India,Chhattisgarh,Kunjemura,"OP Jindal School, Kunjemura - CECB","10-03-2025 23:00:00",22.126650,83.483212,SO2,4,8,6
India,Chhattisgarh,Milupara,"Govt. Higher Secondary School, Milupara - CECB","10-03-2025 23:00:00",22.1910172,83.5197009,NH3,1,3,2
India,Chhattisgarh,Milupara,"Govt. Higher Secondary School, Milupara - CECB","10-03-2025 23:00:00",22.1910172,83.5197009,SO2,8,88,24
India,Chhattisgarh,Milupara,"Govt. Higher Secondary School, Milupara - CECB","10-03-2025 23:00:00",22.1910172,83.5197009,CO,31,126,43
India,Chhattisgarh,Raipur,"AIIMS, Raipur - CECB","10-03-2025 23:00:00",21.258815,81.578979,NH3,5,7,7
India,Chhattisgarh,Raipur,"AIIMS, Raipur - CECB","10-03-2025 23:00:00",21.258815,81.578979,SO2,10,51,21
India,Delhi,Delhi,"Alipur, Delhi - DPCC","10-03-2025 23:00:00",28.815329,77.153010,PM2.5,83,365,266
India,Delhi,Delhi,"Alipur, Delhi - DPCC","10-03-2025 23:00:00",28.815329,77.153010,PM10,137,361,218
India,Delhi,Delhi,"Alipur, Delhi - DPCC","10-03-2025 23:00:00",28.815329,77.153010,SO2,8,31,19
India,Delhi,Delhi,"Alipur, Delhi - DPCC","10-03-2025 23:00:00",28.815329,77.153010,CO,30,82,61
India,Delhi,Delhi,"Anand Vihar, Delhi - DPCC","10-03-2025 23:00:00",28.647622,77.3158090,NO2,51,161,91
India,Delhi,Delhi,"Ashok Vihar, Delhi - DPCC","10-03-2025 23:00:00",28.695381,77.181665,NO2,20,163,76
India,Delhi,Delhi,"Aya Nagar, Delhi - IMD","10-03-2025 23:00:00",28.4706914,77.1099364,PM2.5,71,280,143
India,Delhi,Delhi,"Bawana, Delhi - DPCC","10-03-2025 23:00:00",28.776200,77.051074,PM2.5,87,384,267
India,Delhi,Delhi,"IGI Airport (T3), Delhi - IMD","10-03-2025 23:00:00",28.5627763,77.1180053,CO,30,112,63
India,Delhi,Delhi,"IGI Airport (T3), Delhi - IMD","10-03-2025 23:00:00",28.5627763,77.1180053,OZONE,6,163,81
India,Delhi,Delhi,"IHBAS, Dilshad Garden, Delhi - CPCB","10-03-2025 23:00:00",28.6811736,77.3025234,PM2.5,46,129,70
India,Delhi,Delhi,"IHBAS, Dilshad Garden, Delhi - CPCB","10-03-2025 23:00:00",28.6811736,77.3025234,NO2,42,68,51
India,Delhi,Delhi,"IHBAS, Dilshad Garden, Delhi - CPCB","10-03-2025 23:00:00",28.6811736,77.3025234,NH3,10,12,10
India,Delhi,Delhi,"IHBAS, Dilshad Garden, Delhi - CPCB","10-03-2025 23:00:00",28.6811736,77.3025234,SO2,13,27,17
India,Delhi,Delhi,"ITO, Delhi - CPCB","10-03-2025 23:00:00",28.628624,77.241060,PM10,97,220,152
India,Chhattisgarh,Raipur,"Bhatagaon New ISBT, Raipur - CECB","10-03-2025 23:00:00",21.219665,81.630094,PM2.5,NA,NA,NA
India,Chhattisgarh,Raipur,"Bhatagaon New ISBT, Raipur - CECB","10-03-2025 23:00:00",21.219665,81.630094,NO2,NA,NA,NA
India,Chhattisgarh,Raipur,"Bhatagaon New ISBT, Raipur - CECB","10-03-2025 23:00:00",21.219665,81.630094,SO2,NA,NA,NA
India,Chhattisgarh,Raipur,"Krishak Nagar, Raipur - CECB","10-03-2025 23:00:00",21.237755,81.705301,PM10,62,145,101
India,Chhattisgarh,Raipur,"Krishak Nagar, Raipur - CECB","10-03-2025 23:00:00",21.237755,81.705301,SO2,10,32,16
India,Chhattisgarh,Raipur,"Siltara Phase-II, Raipur - CECB","10-03-2025 23:00:00",21.371751,81.664929,PM10,NA,NA,NA
India,Delhi,Delhi,"Dr. Karni Singh Shooting Range, Delhi - DPCC","10-03-2025 23:00:00",28.498571,77.264840,PM2.5,75,322,176
India,Delhi,Delhi,"Dwarka-Sector 8, Delhi - DPCC ","10-03-2025 23:00:00",28.5710274,77.0719006,CO,39,113,75
India,Delhi,Delhi,"Chandni Chowk, Delhi - IITM","10-03-2025 23:00:00",28.656756,77.227234,PM10,121,193,150
India,Delhi,Delhi,"DTU, Delhi - CPCB","10-03-2025 23:00:00",28.7500499,77.1112615,NO2,33,55,42
India,Delhi,Delhi,"Bawana, Delhi - DPCC","10-03-2025 23:00:00",28.776200,77.051074,NH3,7,10,8
India,Delhi,Delhi,"Burari Crossing, Delhi - IMD","10-03-2025 23:00:00",28.7256504,77.2011573,NO2,10,22,16
India,Delhi,Delhi,"Jahangirpuri, Delhi - DPCC","10-03-2025 23:00:00",28.732820,77.170633,NO2,35,115,69
India,Delhi,Delhi,"Jahangirpuri, Delhi - DPCC","10-03-2025 23:00:00",28.732820,77.170633,CO,28,188,91
India,Delhi,Delhi,"Jawaharlal Nehru Stadium, Delhi - DPCC","10-03-2025 23:00:00",28.580280,77.233829,PM10,116,248,163
India,Delhi,Delhi,"Jawaharlal Nehru Stadium, Delhi - DPCC","10-03-2025 23:00:00",28.580280,77.233829,OZONE,17,90,52
India,Delhi,Delhi,"Lodhi Road, Delhi - IITM","10-03-2025 23:00:00",28.588333,77.221667,PM2.5,59,331,185
India,Delhi,Delhi,"Lodhi Road, Delhi - IITM","10-03-2025 23:00:00",28.588333,77.221667,NO2,92,184,114
India,Delhi,Delhi,"Lodhi Road, Delhi - IMD","10-03-2025 23:00:00",28.5918245,77.2273074,PM10,NA,NA,NA
India,Delhi,Delhi,"Major Dhyan Chand National Stadium, Delhi - DPCC","10-03-2025 23:00:00",28.611281,77.237738,PM2.5,80,336,222
India,Delhi,Delhi,"Mandir Marg, Delhi - DPCC","10-03-2025 23:00:00",28.636429,77.201067,PM2.5,60,323,189
India,Delhi,Delhi,"Mandir Marg, Delhi - DPCC","10-03-2025 23:00:00",28.636429,77.201067,NH3,8,14,11
India,Delhi,Delhi,"Mandir Marg, Delhi - DPCC","10-03-2025 23:00:00",28.636429,77.201067,SO2,10,16,13
India,Delhi,Delhi,"Mundka, Delhi - DPCC","10-03-2025 23:00:00",28.684678,77.076574,PM2.5,87,325,229
India,Gujarat,Ahmedabad,"Chandkheda, Ahmedabad - IITM","10-03-2025 23:00:00",23.107969,72.574648,NO2,NA,NA,NA
India,Gujarat,Ahmedabad,"Chandkheda, Ahmedabad - IITM","10-03-2025 23:00:00",23.107969,72.574648,NH3,NA,NA,NA
India,Gujarat,Ahmedabad,"Chandkheda, Ahmedabad - IITM","10-03-2025 23:00:00",23.107969,72.574648,SO2,12,80,32
India,Gujarat,Ahmedabad,"Chandkheda, Ahmedabad - IITM","10-03-2025 23:00:00",23.107969,72.574648,CO,4,137,62
India,Gujarat,Ahmedabad,"Maninagar, Ahmedabad - GPCB","10-03-2025 23:00:00",23.002657,72.591912,NO2,29,31,30
India,Gujarat,Ahmedabad,"Maninagar, Ahmedabad - GPCB","10-03-2025 23:00:00",23.002657,72.591912,CO,10,68,37
India,Gujarat,Ahmedabad,"Raikhad, Ahmedabad - IITM","10-03-2025 23:00:00",23.020509,72.579261,OZONE,1,130,59
India,Gujarat,Ahmedabad,"Rakhial, Ahmedabad - IITM","10-03-2025 23:00:00",23.016834,72.625775,PM2.5,46,354,181
India,Gujarat,Ahmedabad,"Rakhial, Ahmedabad - IITM","10-03-2025 23:00:00",23.016834,72.625775,NH3,2,22,8
India,Gujarat,Ahmedabad,"Rakhial, Ahmedabad - IITM","10-03-2025 23:00:00",23.016834,72.625775,SO2,27,116,79
India,Delhi,Delhi,"Pusa, Delhi - DPCC","10-03-2025 23:00:00",28.639652,77.146275,CO,4,61,24
India,Delhi,Delhi,"Pusa, Delhi - DPCC","10-03-2025 23:00:00",28.639652,77.146275,OZONE,2,51,27
India,Delhi,Delhi,"Pusa, Delhi - IMD","10-03-2025 23:00:00",28.636110,77.173332,PM2.5,81,269,175
India,Delhi,Delhi,"R K Puram, Delhi - DPCC","10-03-2025 23:00:00",28.563262,77.186937,SO2,6,38,23
India,Delhi,Delhi,"R K Puram, Delhi - DPCC","10-03-2025 23:00:00",28.563262,77.186937,CO,6,123,61
India,Delhi,Delhi,"Rohini, Delhi - DPCC","10-03-2025 23:00:00",28.732528,77.119920,NO2,26,150,83
India,Delhi,Delhi,"Rohini, Delhi - DPCC","10-03-2025 23:00:00",28.732528,77.119920,SO2,10,27,15
India,Delhi,Delhi,"Shadipur, Delhi - CPCB","10-03-2025 23:00:00",28.6514781,77.1473105,PM10,117,213,155
India,Delhi,Delhi,"Mundka, Delhi - DPCC","10-03-2025 23:00:00",28.684678,77.076574,CO,12,88,41
India,Delhi,Delhi,"NSIT Dwarka, Delhi - CPCB","10-03-2025 23:00:00",28.60909,77.0325413,PM10,114,159,132
India,Delhi,Delhi,"Najafgarh, Delhi - DPCC","10-03-2025 23:00:00",28.570173,76.933762,PM10,101,182,136
India,Delhi,Delhi,"Najafgarh, Delhi - DPCC","10-03-2025 23:00:00",28.570173,76.933762,OZONE,54,242,142
India,Delhi,Delhi,"Narela, Delhi - DPCC","10-03-2025 23:00:00",28.822836,77.101981,OZONE,8,50,32
India,Delhi,Delhi,"Nehru Nagar, Delhi - DPCC","10-03-2025 23:00:00",28.567890,77.250515,NH3,7,21,10
India,Delhi,Delhi,"Nehru Nagar, Delhi - DPCC","10-03-2025 23:00:00",28.567890,77.250515,SO2,7,23,14
India,Delhi,Delhi,"Sirifort, Delhi - CPCB","10-03-2025 23:00:00",28.5504249,77.2159377,PM10,149,394,216
India,Delhi,Delhi,"Sonia Vihar, Delhi - DPCC","10-03-2025 23:00:00",28.710508,77.249485,PM10,111,229,155
India,Delhi,Delhi,"Sri Aurobindo Marg, Delhi - DPCC","10-03-2025 23:00:00",28.531346,77.190156,NH3,6,9,7
India,Delhi,Delhi,"Vivek Vihar, Delhi - DPCC","10-03-2025 23:00:00",28.672342,77.315260,NH3,1,5,3
India,Delhi,Delhi,"Vivek Vihar, Delhi - DPCC","10-03-2025 23:00:00",28.672342,77.315260,CO,37,106,65
India,Delhi,Delhi,"Wazirpur, Delhi - DPCC","10-03-2025 23:00:00",28.699793,77.165453,PM2.5,83,350,249
India,Delhi,Delhi,"Wazirpur, Delhi - DPCC","10-03-2025 23:00:00",28.699793,77.165453,NO2,64,254,132
India,Delhi,Delhi,"Wazirpur, Delhi - DPCC","10-03-2025 23:00:00",28.699793,77.165453,NH3,12,24,18
India,Delhi,Delhi,"North Campus, DU, Delhi - IMD","10-03-2025 23:00:00",28.6573814,77.1585447,OZONE,8,134,67
India,Delhi,Delhi,"Okhla Phase-2, Delhi - DPCC","10-03-2025 23:00:00",28.530785,77.271255,PM10,130,296,193
India,Delhi,Delhi,"Punjabi Bagh, Delhi - DPCC","10-03-2025 23:00:00",28.674045,77.131023,NH3,10,13,11
India,Delhi,Delhi,"Pusa, Delhi - DPCC","10-03-2025 23:00:00",28.639652,77.146275,NO2,26,133,68
India,Gujarat,Ankleshwar,"GIDC, Ankleshwar - GPCB","10-03-2025 23:00:00",21.613267,73.010555,PM10,70,116,98
India,Gujarat,Vapi,"Phase-1 GIDC, Vapi - GPCB","10-03-2025 23:00:00",20.362421,72.918013,OZONE,2,2,2
India,Gujarat,Vatva,"Phase-4 GIDC, Vatva - GPCB","10-03-2025 23:00:00",22.969611,72.643500,CO,18,99,42
India,Haryana,"Charkhi Dadri","Mini Secretariat, Charkhi Dadri - HSPCB","10-03-2025 23:00:00",28.593883,76.270653,OZONE,14,18,15
India,Haryana,Faridabad,"New Industrial Town, Faridabad - HSPCB","10-03-2025 23:00:00",28.39072,77.30059,PM10,88,136,109
India,Haryana,Faridabad,"New Industrial Town, Faridabad - HSPCB","10-03-2025 23:00:00",28.39072,77.30059,OZONE,35,78,52
India,Haryana,Faridabad,"Sector 11, Faridabad - HSPCB","10-03-2025 23:00:00",28.376058,77.315741,PM2.5,44,49,46
India,Haryana,Faridabad,"Sector 11, Faridabad - HSPCB","10-03-2025 23:00:00",28.376058,77.315741,NO2,30,32,31
India,Karnataka,Bengaluru,"Hombegowda Nagar, Bengaluru - KSPCB","10-03-2025 23:00:00",12.938539,77.590100,CO,2,31,21
India,Karnataka,Bengaluru,"Jayanagar 5th Block, Bengaluru - KSPCB","10-03-2025 23:00:00",12.920984,77.584908,PM10,49,262,91
India,Karnataka,Bengaluru,"Jigani, Bengaluru - KSPCB","10-03-2025 23:00:00",12.7816279,77.6299145,NH3,6,7,6
India,"Himachal Pradesh",Baddi,"HIMUDA Complex Phase-1, Baddi - HPPCB","10-03-2025 23:00:00",30.943887,76.801991,OZONE,37,171,129
India,Jammu_and_Kashmir,Srinagar,"Rajbagh, Srinagar - JKSPCB","10-03-2025 23:00:00",34.066206,74.819820,PM2.5,NA,NA,NA
India,Jammu_and_Kashmir,Srinagar,"Rajbagh, Srinagar - JKSPCB","10-03-2025 23:00:00",34.066206,74.819820,NH3,NA,NA,NA
India,Haryana,Gurugram,"Teri Gram, Gurugram - HSPCB","10-03-2025 23:00:00",28.4275,77.1465,OZONE,21,42,42
India,"Himachal Pradesh",Baddi,"HIMUDA Complex Phase-1, Baddi - HPPCB","10-03-2025 23:00:00",30.943887,76.801991,SO2,4,103,27
India,Haryana,Gurugram,"NISE Gwal Pahari, Gurugram - IMD","10-03-2025 23:00:00",28.422681,77.148944,NO2,2,163,44
India,Haryana,Gurugram,"Sector-51, Gurugram - HSPCB","10-03-2025 23:00:00",28.4227,77.0667,NH3,6,10,8
India,Gujarat,Ankleshwar,"GIDC, Ankleshwar - GPCB","10-03-2025 23:00:00",21.613267,73.010555,CO,10,101,47
India,Gujarat,Gandhinagar,"GIFT City, Gandhinagar - IITM","10-03-2025 23:00:00",23.163798,72.677768,PM2.5,NA,NA,NA
India,Gujarat,Surat,"Science Center, Surat - SMC","10-03-2025 23:00:00",21.170046,72.795405,PM10,34,500,192
India,Gujarat,Surat,"Science Center, Surat - SMC","10-03-2025 23:00:00",21.170046,72.795405,CO,30,76,50
India,Karnataka,Belgaum,"Ramteerth Nagar, Belgaum - KSPCB","10-03-2025 23:00:00",15.888653,74.541751,PM10,NA,NA,NA
India,Karnataka,Belgaum,"Ramteerth Nagar, Belgaum - KSPCB","10-03-2025 23:00:00",15.888653,74.541751,NO2,NA,NA,NA
India,Karnataka,Bengaluru,"BTM Layout, Bengaluru - CPCB","10-03-2025 23:00:00",12.9135218,77.5950804,SO2,7,10,8
India,Karnataka,Davanagere,"Devaraj Urs Badavane, Davanagere - KSPCB","10-03-2025 23:00:00",14.475800,75.905200,OZONE,19,20,19
India,Karnataka,Dharwad,"Kalabhavan, Dharwad - KSPCB","10-03-2025 23:00:00",15.459706,75.008381,CO,20,137,38
India,Karnataka,Haveri,"Ashwini Nagar, Haveri - KSPCB","10-03-2025 23:00:00",14.791800,75.389600,NH3,4,6,5
India,Karnataka,Haveri,"Ashwini Nagar, Haveri - KSPCB","10-03-2025 23:00:00",14.791800,75.389600,CO,23,25,24
India,Karnataka,Haveri,"Ashwini Nagar, Haveri - KSPCB","10-03-2025 23:00:00",14.791800,75.389600,OZONE,NA,NA,NA
India,Karnataka,Hubballi,"Lingaraj Nagar, Hubballi - KSPCB","10-03-2025 23:00:00",15.3714823,75.1160168,PM10,48,53,49
India,Karnataka,Kalaburagi,"Lal Bahadur Shastri Nagar, Kalaburagi - KSPCB","10-03-2025 23:00:00",17.321993,76.822628,PM10,46,110,66
India,Karnataka,Kalaburagi,"Lal Bahadur Shastri Nagar, Kalaburagi - KSPCB","10-03-2025 23:00:00",17.321993,76.822628,OZONE,23,77,50
India,Karnataka,Madikeri,"Stuart Hill, Madikeri - KSPCB","10-03-2025 23:00:00",12.415911,75.735050,PM2.5,10,63,42
India,Karnataka,Madikeri,"Stuart Hill, Madikeri - KSPCB","10-03-2025 23:00:00",12.415911,75.735050,NH3,1,2,1
India,Karnataka,Mangalore,"Kadri, Mangalore - KSPCB","10-03-2025 23:00:00",12.889250,74.853000,PM2.5,63,94,80
India,Karnataka,Mysuru,"Hebbal 1st Stage, Mysuru - KSPCB","10-03-2025 23:00:00",12.21041,76.37376,PM10,NA,NA,NA
India,Karnataka,Mysuru,"Hebbal 1st Stage, Mysuru - KSPCB","10-03-2025 23:00:00",12.21041,76.37376,NO2,NA,NA,NA
India,Karnataka,Mysuru,"Hebbal 1st Stage, Mysuru - KSPCB","10-03-2025 23:00:00",12.21041,76.37376,CO,14,14,14
India,Karnataka,Ramanagara,"Vijay Nagar, Ramanagara - KSPCB","10-03-2025 23:00:00",12.733409,77.298051,PM2.5,21,82,51
India,Karnataka,Ramanagara,"Vijay Nagar, Ramanagara - KSPCB","10-03-2025 23:00:00",12.733409,77.298051,OZONE,22,100,66
India,Karnataka,Bengaluru,"Shivapura_Peenya, Bengaluru - KSPCB","10-03-2025 23:00:00",13.0246342,77.5080115,NH3,2,2,2
India,Karnataka,Bengaluru,"Shivapura_Peenya, Bengaluru - KSPCB","10-03-2025 23:00:00",13.0246342,77.5080115,OZONE,30,30,30
India,Karnataka,Bengaluru,"Silk Board, Bengaluru - KSPCB","10-03-2025 23:00:00",12.917348,77.622813,OZONE,6,31,15
India,Karnataka,Bengaluru,"Peenya, Bengaluru - CPCB","10-03-2025 23:00:00",13.0270199,77.494094,PM2.5,28,94,66
India,Karnataka,Bengaluru,"Peenya, Bengaluru - CPCB","10-03-2025 23:00:00",13.0270199,77.494094,NH3,3,4,3
India,Karnataka,Bengaluru,"Peenya, Bengaluru - CPCB","10-03-2025 23:00:00",13.0270199,77.494094,CO,1,42,19
India,Karnataka,Kalaburagi,"Mahatma Basaveswar Colony, Kalaburgi - KSPCB","10-03-2025 23:00:00",17.336318,76.847397,NH3,2,4,2
India,Karnataka,Kalaburagi,"Mahatma Basaveswar Colony, Kalaburgi - KSPCB","10-03-2025 23:00:00",17.336318,76.847397,OZONE,2,42,17
India,Karnataka,Chamarajanagar,"Urban, Chamarajanagar - KSPCB","10-03-2025 23:00:00",11.55358,76.55521,OZONE,26,35,35
India,Karnataka,Bengaluru,"RVCE-Mailasandra, Bengaluru - KSPCB","10-03-2025 23:00:00",12.921418,77.502466,NH3,2,2,2
India,Karnataka,Koppal,"Diwator Nagar, Koppal - KSPCB","10-03-2025 23:00:00",15.347630,76.181767,PM2.5,NA,NA,NA
India,"Madhya Pradesh",Dewas,"Bhopal Chauraha, Dewas - MPPCB","10-03-2025 23:00:00",22.9682591,76.064118,NH3,4,10,6
India,"Madhya Pradesh",Dewas,"Bhopal Chauraha, Dewas - MPPCB","10-03-2025 23:00:00",22.9682591,76.064118,SO2,NA,NA,NA
India,"Madhya Pradesh",Gwalior,"City Center, Gwalior - MPPCB","10-03-2025 23:00:00",26.203442,78.193251,PM10,24,116,57
India,"Madhya Pradesh",Gwalior,"City Center, Gwalior - MPPCB","10-03-2025 23:00:00",26.203442,78.193251,NO2,9,50,16
India,"Madhya Pradesh",Gwalior,"City Center, Gwalior - MPPCB","10-03-2025 23:00:00",26.203442,78.193251,CO,50,102,74
India,"Madhya Pradesh",Gwalior,"Deen Dayal Nagar, Gwalior - MPPCB","10-03-2025 23:00:00",26.259242,78.216432,NH3,9,12,10
India,"Madhya Pradesh",Gwalior,"Deen Dayal Nagar, Gwalior - MPPCB","10-03-2025 23:00:00",26.259242,78.216432,CO,32,90,57
India,"Madhya Pradesh",Gwalior,"Maharaj Bada, Gwalior - MPPCB","10-03-2025 23:00:00",26.200388,78.147714,NH3,4,5,4
India,Karnataka,Shivamogga,"Vinoba Nagara, Shivamogga - KSPCB","10-03-2025 23:00:00",13.940000,75.555917,PM10,40,60,51
India,Karnataka,Shivamogga,"Vinoba Nagara, Shivamogga - KSPCB","10-03-2025 23:00:00",13.940000,75.555917,NO2,20,27,21
India,Karnataka,Tumakuru,"Thimmalapura, Tumakuru - KSPCB","10-03-2025 23:00:00",13.377516,77.099072,PM10,106,301,154
India,Karnataka,Tumakuru,"Thimmalapura, Tumakuru - KSPCB","10-03-2025 23:00:00",13.377516,77.099072,CO,56,59,57
India,Karnataka,Tumakuru,"Thimmalapura, Tumakuru - KSPCB","10-03-2025 23:00:00",13.377516,77.099072,OZONE,5,8,6
India,Karnataka,Udupi,"Brahmagiri, Udupi - KSPCB","10-03-2025 23:00:00",13.34194444,74.74694444,PM2.5,NA,NA,NA
India,Karnataka,Yadgir,"Collector Office, Yadgir - KSPCB","10-03-2025 23:00:00",16.7602,77.1428,NH3,2,2,2
India,Kerala,Kannur,"Thavakkara, Kannur - Kerala PCB","10-03-2025 23:00:00",11.875000,75.373200,PM10,NA,NA,NA
India,Kerala,Kannur,"Thavakkara, Kannur - Kerala PCB","10-03-2025 23:00:00",11.875000,75.373200,SO2,NA,NA,NA
India,Kerala,Kollam,"Polayathode, Kollam - Kerala PCB","10-03-2025 23:00:00",8.8787,76.6073,PM2.5,46,58,51
India,Kerala,Kollam,"Polayathode, Kollam - Kerala PCB","10-03-2025 23:00:00",8.8787,76.6073,OZONE,30,40,36
India,"Madhya Pradesh",Bhopal,"Paryavaran Parisar, Bhopal - MPPCB","10-03-2025 23:00:00",23.210494,77.425409,PM2.5,18,280,63
India,"Madhya Pradesh",Bhopal,"Paryavaran Parisar, Bhopal - MPPCB","10-03-2025 23:00:00",23.210494,77.425409,PM10,44,259,104
India,"Madhya Pradesh",Bhopal,"T T Nagar, Bhopal - MPPCB","10-03-2025 23:00:00",23.233584,77.400574,NO2,25,82,40
India,Kerala,Thiruvananthapuram,"Kariavattom, Thiruvananthapuram - Kerala PCB","10-03-2025 23:00:00",8.563700,76.886500,NO2,6,7,6
India,Kerala,Thiruvananthapuram,"Kariavattom, Thiruvananthapuram - Kerala PCB","10-03-2025 23:00:00",8.563700,76.886500,SO2,1,9,5
India,Kerala,Thiruvananthapuram,"Kariavattom, Thiruvananthapuram - Kerala PCB","10-03-2025 23:00:00",8.563700,76.886500,CO,24,71,32
India,"Madhya Pradesh",Gwalior,"Maharaj Bada, Gwalior - MPPCB","10-03-2025 23:00:00",26.200388,78.147714,OZONE,32,128,70
India,"Madhya Pradesh",Indore,"Airport Area, Indore - IMC","10-03-2025 23:00:00",22.7289,75.8076,PM2.5,23,193,52
India,"Madhya Pradesh",Jabalpur,"Gupteshwar, Jabalpur - JMC","10-03-2025 23:00:00",23.142888,79.916147,PM2.5,5,68,28
India,"Madhya Pradesh",Jabalpur,"Gupteshwar, Jabalpur - JMC","10-03-2025 23:00:00",23.142888,79.916147,SO2,4,15,9
India,Kerala,Thrissur,"Corporation Ground, Thrissur - Kerala PCB","10-03-2025 23:00:00",10.532400,76.215900,NO2,8,13,10
India,"Madhya Pradesh",Indore,"Residency Area, Indore - IMC","10-03-2025 23:00:00",22.7084,75.8815,SO2,41,91,59
India,"Madhya Pradesh",Katni,"Gole Bazar, Katni - MPPCB","10-03-2025 23:00:00",23.50016,80.23284,CO,22,91,47
India,"Madhya Pradesh",Maihar,"Sahilara, Maihar - KJS Cements","10-03-2025 23:00:00",24.2613009,80.7231783,PM2.5,9,42,23
India,"Madhya Pradesh",Maihar,"Sahilara, Maihar - KJS Cements","10-03-2025 23:00:00",24.2613009,80.7231783,SO2,8,8,8
India,"Madhya Pradesh",Mandideep,"Sector-D Industrial Area, Mandideep - MPPCB","10-03-2025 23:00:00",23.108440,77.511428,NO2,27,73,46
India,"Madhya Pradesh",Mandideep,"Sector-D Industrial Area, Mandideep - MPPCB","10-03-2025 23:00:00",23.108440,77.511428,OZONE,33,38,37
India,"Madhya Pradesh",Ratlam,"Shasthri Nagar, Ratlam - IPCA Lab","10-03-2025 23:00:00",23.331731,75.045981,PM2.5,12,205,59
India,"Madhya Pradesh",Ratlam,"Shasthri Nagar, Ratlam - IPCA Lab","10-03-2025 23:00:00",23.331731,75.045981,SO2,15,20,16
India,Maharashtra,Belapur,"CBD Belapur, Belapur - MPCB","10-03-2025 23:00:00",19.0243902,73.0406721,NO2,28,81,48
India,Maharashtra,Bhiwandi,"Gokul Nagar, Bhiwandi - MPCB","10-03-2025 23:00:00",19.309073,73.057223,PM10,53,160,116
India,Maharashtra,Chandrapur,"Chauhan Colony, Chandrapur - MPCB","10-03-2025 23:00:00",19.962900,79.298714,SO2,18,21,18
India,Maharashtra,Chandrapur,"Chauhan Colony, Chandrapur - MPCB","10-03-2025 23:00:00",19.962900,79.298714,OZONE,20,23,21
India,Maharashtra,Aurangabad,"MIDC Chilkalthana, Aurangabad - MPCB","10-03-2025 23:00:00",19.875620,75.387310,PM10,66,401,114
India,Maharashtra,Aurangabad,"MIDC Chilkalthana, Aurangabad - MPCB","10-03-2025 23:00:00",19.875620,75.387310,NH3,1,3,2
India,Maharashtra,Aurangabad,"MIDC Chilkalthana, Aurangabad - MPCB","10-03-2025 23:00:00",19.875620,75.387310,CO,12,52,30
India,Maharashtra,Aurangabad,"Rachnakar Colony, Aurangabad - MPCB","10-03-2025 23:00:00",19.863756,75.321188,PM10,89,181,128
India,"Madhya Pradesh",Ujjain,"Mahakaleshwar Temple, Ujjain - MPPCB","10-03-2025 23:00:00","23.182719 ","75.768218 ",PM2.5,17,42,28
India,"Madhya Pradesh",Ujjain,"Mahakaleshwar Temple, Ujjain - MPPCB","10-03-2025 23:00:00","23.182719 ","75.768218 ",PM10,36,138,72
India,Maharashtra,Ahmednagar,"Tarakpur, Ahmednagar - MPCB","10-03-2025 23:00:00",19.10122,74.73339,PM10,59,213,119
India,Maharashtra,Akola,"Ramdaspeth, Akola - MPCB","10-03-2025 23:00:00",20.719516,77.000253,NO2,11,96,31
India,Maharashtra,Akola,"Ramdaspeth, Akola - MPCB","10-03-2025 23:00:00",20.719516,77.000253,SO2,9,37,19
India,Maharashtra,Amravati,"Shivneri Colony, Amravati - MPCB","10-03-2025 23:00:00",20.9402359,77.7895248,CO,21,22,21
India,"Madhya Pradesh",Sagar,"Civil Lines, Sagar - MPPCB","10-03-2025 23:00:00",23.838586,78.759431,SO2,7,16,12
India,"Madhya Pradesh",Sagar,"Civil Lines, Sagar - MPPCB","10-03-2025 23:00:00",23.838586,78.759431,CO,13,28,25
India,"Madhya Pradesh",Sagar,"Deen Dayal Nagar, Sagar - MPPCB","10-03-2025 23:00:00",23.8640158,78.80289321,PM10,NA,NA,NA
India,"Madhya Pradesh",Jabalpur,"Gupteshwar, Jabalpur - JMC","10-03-2025 23:00:00",23.142888,79.916147,OZONE,8,99,45
India,"Madhya Pradesh",Jabalpur,"Marhatal, Jabalpur - MPPCB","10-03-2025 23:00:00",23.168606,79.932247,PM10,48,187,96
India,"Madhya Pradesh",Jabalpur,"Marhatal, Jabalpur - MPPCB","10-03-2025 23:00:00",23.168606,79.932247,CO,6,105,52
India,Maharashtra,Amravati,"Shivneri Colony, Amravati - MPCB","10-03-2025 23:00:00",20.9402359,77.7895248,OZONE,21,138,106
India,Maharashtra,Amravati,"Shri Shivaji Science College, Amaravati - MPCB","10-03-2025 23:00:00",20.939198,77.765701,CO,20,115,55
India,Maharashtra,Badlapur,"Katrap, Badlapur - MPCB","10-03-2025 23:00:00",19.16485,73.23409,NO2,42,146,85
India,Maharashtra,Mumbai,"Deonar, Mumbai - IITM","10-03-2025 23:00:00",19.04946,72.9230,PM10,157,254,197
India,Maharashtra,Mumbai,"Deonar, Mumbai - IITM","10-03-2025 23:00:00",19.04946,72.9230,NH3,13,25,19
India,Maharashtra,Mumbai,"Ghatkopar, Mumbai - BMC","10-03-2025 23:00:00",19.083694,72.920967,PM10,NA,NA,NA
India,Maharashtra,Mumbai,"Ghatkopar, Mumbai - BMC","10-03-2025 23:00:00",19.083694,72.920967,NO2,NA,NA,NA
India,Maharashtra,Mumbai,"Ghatkopar, Mumbai - BMC","10-03-2025 23:00:00",19.083694,72.920967,NH3,NA,NA,NA
India,Maharashtra,Mumbai,"Kandivali East, Mumbai - MPCB","10-03-2025 23:00:00",19.205800,72.868200,NH3,8,24,13
India,Maharashtra,Mumbai,"Kherwadi_Bandra East, Mumbai - MPCB","10-03-2025 23:00:00",19.0632143,72.8456324,OZONE,1,216,84
India,Maharashtra,Mumbai,"Malad West, Mumbai - IITM","10-03-2025 23:00:00",19.19709,72.82204,PM2.5,46,318,141
India,Maharashtra,Latur,"Sawe Wadi, Latur - MPCB","10-03-2025 23:00:00",18.39963,76.57452,NH3,NA,NA,NA
India,Maharashtra,Latur,"Sawe Wadi, Latur - MPCB","10-03-2025 23:00:00",18.39963,76.57452,CO,5,54,32
India,Maharashtra,Latur,"Sawe Wadi, Latur - MPCB","10-03-2025 23:00:00",18.39963,76.57452,OZONE,23,116,87
India,Maharashtra,Malegaon,"Mahesh Nagar, Malegaon - MPCB","10-03-2025 23:00:00",20.555712,74.529236,SO2,20,45,31
India,Maharashtra,Mumbai,"Bandra Kurla Complex, Mumbai - MPCB","10-03-2025 23:00:00",19.065931,72.862131,PM2.5,69,241,122
India,Maharashtra,Chandrapur,"MIDC Khutala, Chandrapur - MPCB","10-03-2025 23:00:00",19.9775302,79.2337086,NH3,1,1,1
India,Maharashtra,Dhule,"Deopur, Dhule - MPCB","10-03-2025 23:00:00",20.918946,74.776388,SO2,2,14,7
India,Maharashtra,Jalgaon,"Prabhat Colony, Jalgaon - MPCB","10-03-2025 23:00:00",21.001264,75.565602,SO2,18,49,31
India,Maharashtra,Jalna,"Old MIDC, Jalna - MPCB","10-03-2025 23:00:00",19.854616,75.905894,PM2.5,NA,NA,NA
India,Maharashtra,Mumbai,"Mindspace-Malad West, Mumbai - MPCB","10-03-2025 23:00:00",19.1878657,72.8304069,OZONE,5,100,31
India,Maharashtra,Mumbai,"Mulund West, Mumbai - MPCB","10-03-2025 23:00:00",19.1750,72.9419,PM10,NA,NA,NA
India,Maharashtra,Mumbai,"Navy Nagar-Colaba, Mumbai - IITM","10-03-2025 23:00:00",18.897756,72.813320,PM10,66,171,116
India,Maharashtra,Mumbai,"Navy Nagar-Colaba, Mumbai - IITM","10-03-2025 23:00:00",18.897756,72.813320,NO2,48,157,98
India,Maharashtra,Kalyan,"Pimpleshwar Mandir, Kalyan - MPCB","10-03-2025 23:00:00",19.192056,72.9585188,SO2,6,47,17
India,Maharashtra,Kolhapur,"Shivaji University, Kolhapur - MPCB","10-03-2025 23:00:00",16.6870449,74.2505872,PM2.5,23,136,67
India,Maharashtra,Kolhapur,"Shivaji University, Kolhapur - MPCB","10-03-2025 23:00:00",16.6870449,74.2505872,NO2,10,13,12
India,Maharashtra,Mumbai,"Borivali East, Mumbai - MPCB","10-03-2025 23:00:00",19.2243333,72.8658113,PM10,99,142,117
India,Maharashtra,Mumbai,"Byculla, Mumbai - BMC","10-03-2025 23:00:00",18.9767,72.8380,PM10,70,155,105
India,Maharashtra,Mumbai,"Byculla, Mumbai - BMC","10-03-2025 23:00:00",18.9767,72.8380,NH3,11,59,22
India,Maharashtra,Mumbai,"Shivaji Nagar, Mumbai - BMC","10-03-2025 23:00:00",19.060498,72.923356,CO,6,106,45
India,Maharashtra,Mumbai,"Siddharth Nagar-Worli, Mumbai - IITM","10-03-2025 23:00:00",19.000083,72.813993,NH3,1,3,2
India,Maharashtra,Mumbai,"Chembur, Mumbai - MPCB","10-03-2025 23:00:00",19.0364585,72.8954371,PM10,91,148,118
India,Maharashtra,Mumbai,"Chembur, Mumbai - MPCB","10-03-2025 23:00:00",19.0364585,72.8954371,NO2,55,114,78
India,Maharashtra,Mumbai,"Chembur, Mumbai - MPCB","10-03-2025 23:00:00",19.0364585,72.8954371,NH3,11,24,16
India,Maharashtra,Mumbai,"Navy Nagar-Colaba, Mumbai - IITM","10-03-2025 23:00:00",18.897756,72.813320,OZONE,2,91,59
India,Maharashtra,Nagpur,"Ram Nagar, Nagpur - MPCB","10-03-2025 23:00:00",21.143383,79.048912,PM10,74,220,126
India,Maharashtra,Nagpur,"Ram Nagar, Nagpur - MPCB","10-03-2025 23:00:00",21.143383,79.048912,OZONE,3,75,39
India,Maharashtra,Nanded,"Sneh Nagar, Nanded - MPCB","10-03-2025 23:00:00",19.173852,77.296291,NO2,17,48,27
India,Maharashtra,Nashik,"Gangapur Road, Nashik - MPCB","10-03-2025 23:00:00",20.0073285,73.7762427,PM2.5,NA,NA,NA
India,Maharashtra,Nashik,"Gangapur Road, Nashik - MPCB","10-03-2025 23:00:00",20.0073285,73.7762427,PM10,NA,NA,NA
India,Maharashtra,Nashik,"Gangapur Road, Nashik - MPCB","10-03-2025 23:00:00",20.0073285,73.7762427,CO,NA,NA,NA
India,Maharashtra,Nashik,"MIDC Ambad, Nashik - MPCB","10-03-2025 23:00:00",19.950220,73.731480,PM10,95,146,127
India,Maharashtra,Nashik,"MIDC Ambad, Nashik - MPCB","10-03-2025 23:00:00",19.950220,73.731480,OZONE,15,79,63
India,Maharashtra,Nashik,"Pandav Nagari, Nashik - MPCB","10-03-2025 23:00:00",19.9591346,73.7788008,PM10,NA,NA,NA
India,Maharashtra,Nashik,"Pandav Nagari, Nashik - MPCB","10-03-2025 23:00:00",19.9591346,73.7788008,NH3,NA,NA,NA
India,Maharashtra,Mumbai,"Sion, Mumbai - MPCB","10-03-2025 23:00:00",19.047000,72.874600,NH3,3,3,3
India,Maharashtra,Mumbai,"Sion, Mumbai - MPCB","10-03-2025 23:00:00",19.047000,72.874600,CO,7,8,8
India,Maharashtra,Mumbai,"Sion, Mumbai - MPCB","10-03-2025 23:00:00",19.047000,72.874600,OZONE,5,5,5
India,Maharashtra,Mumbai,"Vile Parle West, Mumbai - MPCB","10-03-2025 23:00:00",19.10861,72.83622,NH3,3,4,4
India,Maharashtra,Nagpur,"Ambazari, Nagpur - MPCB","10-03-2025 23:00:00",21.121801,79.04952,NH3,1,17,6
India,Maharashtra,"Navi Mumbai","Tondare-Taloja, Navi Mumbai - MPCB","10-03-2025 23:00:00",19.0630,73.1209,NH3,NA,NA,NA
India,Maharashtra,Parbhani,"Masoom Colony, Parbhani - MPCB","10-03-2025 23:00:00",19.265594,76.761463,PM10,18,297,140
India,Maharashtra,Parbhani,"Masoom Colony, Parbhani - MPCB","10-03-2025 23:00:00",19.265594,76.761463,SO2,5,28,24
India,Maharashtra,Nagpur,"Opp GPO Civil Lines, Nagpur - MPCB","10-03-2025 23:00:00",21.152875,79.0517531,CO,13,120,73
India,Maharashtra,Nagpur,"Opp GPO Civil Lines, Nagpur - MPCB","10-03-2025 23:00:00",21.152875,79.0517531,OZONE,2,90,40
India,Maharashtra,Nagpur,"Ram Nagar, Nagpur - MPCB","10-03-2025 23:00:00",21.143383,79.048912,PM2.5,56,231,127
India,Maharashtra,"Navi Mumbai","Sanpada, Navi Mumbai - MPCB","10-03-2025 23:00:00",19.0575752,73.0151367,CO,15,113,54
India,Maharashtra,"Navi Mumbai","Sector-2E Kalamboli, Navi Mumbai - MPCB","10-03-2025 23:00:00",19.02579,73.10297,OZONE,1,102,38
India,Maharashtra,"Navi Mumbai","Mahape, Navi Mumbai - MPCB","10-03-2025 23:00:00",19.1135051,73.008978,NO2,NA,NA,NA
India,Maharashtra,"Navi Mumbai","Sanpada, Navi Mumbai - MPCB","10-03-2025 23:00:00",19.0575752,73.0151367,NO2,NA,NA,NA
India,Maharashtra,Nagpur,"Ambazari, Nagpur - MPCB","10-03-2025 23:00:00",21.121801,79.04952,SO2,20,58,33
India,Maharashtra,Nagpur,"Ambazari, Nagpur - MPCB","10-03-2025 23:00:00",21.121801,79.04952,CO,10,96,57
India,Maharashtra,Nagpur,"Mahal, Nagpur - MPCB","10-03-2025 23:00:00",21.14472,79.107595,SO2,22,65,39
India,Maharashtra,Pune,"Bhosari, Pune - IITM","10-03-2025 23:00:00",18.640051,73.848956,OZONE,3,224,131
India,Maharashtra,Pune,"Bhumkar Nagar, Pune - IITM","10-03-2025 23:00:00",18.605770,73.749976,PM2.5,126,324,244
India,Maharashtra,Pune,"Bhumkar Nagar, Pune - IITM","10-03-2025 23:00:00",18.605770,73.749976,OZONE,1,122,60
India,Maharashtra,Pune,"Hadapsar, Pune - IITM","10-03-2025 23:00:00",18.501793,73.927532,PM10,73,167,130
India,Maharashtra,Pune,"Karve Road, Pune - MPCB","10-03-2025 23:00:00",18.5011743,73.8165527,PM10,115,120,117
India,Maharashtra,Pune,"Karve Road, Pune - MPCB","10-03-2025 23:00:00",18.5011743,73.8165527,NO2,12,14,13
India,Maharashtra,Pune,"Karve Road, Pune - MPCB","10-03-2025 23:00:00",18.5011743,73.8165527,SO2,14,15,14
India,Maharashtra,Pune,"Karve Road, Pune - MPCB","10-03-2025 23:00:00",18.5011743,73.8165527,OZONE,20,22,21
India,Maharashtra,Pune,"Katraj Dairy, Pune - MPCB","10-03-2025 23:00:00",18.454450,73.854155,NH3,3,11,6
India,Maharashtra,Pune,"Katraj Dairy, Pune - MPCB","10-03-2025 23:00:00",18.454450,73.854155,CO,40,87,49
India,Maharashtra,Thane,"Kasarvadavali, Thane - MPCB","10-03-2025 23:00:00",19.26777,72.97182,PM10,93,187,139
India,Maharashtra,Thane,"Kasarvadavali, Thane - MPCB","10-03-2025 23:00:00",19.26777,72.97182,NH3,3,7,5
India,Maharashtra,Thane,"Upvan Fort, Thane - MPCB","10-03-2025 23:00:00",19.222279,72.957979,PM2.5,77,309,140
India,Maharashtra,Thane,"Upvan Fort, Thane - MPCB","10-03-2025 23:00:00",19.222279,72.957979,PM10,78,155,110
India,Maharashtra,Thane,"Upvan Fort, Thane - MPCB","10-03-2025 23:00:00",19.222279,72.957979,NH3,6,9,8
India,Maharashtra,Thane,"Upvan Fort, Thane - MPCB","10-03-2025 23:00:00",19.222279,72.957979,OZONE,2,172,72
India,Maharashtra,Ulhasnagar,"Sidhi Vinayak Nagar, Ulhasnagar - MPCB","10-03-2025 23:00:00",19.235581,73.159121,PM2.5,55,161,101
India,Maharashtra,Ulhasnagar,"Sidhi Vinayak Nagar, Ulhasnagar - MPCB","10-03-2025 23:00:00",19.235581,73.159121,OZONE,16,108,73
India,Maharashtra,Virar,"Bolinj, Virar - MPCB","10-03-2025 23:00:00",19.4458210,72.7988231,PM10,54,266,105
India,Manipur,Imphal,"DM College of Science, Imphal - Manipur PCB","10-03-2025 23:00:00",24.8207389,93.9423085,OZONE,3,4,3
India,Meghalaya,Shillong,"JN Stadium, Shillong - Meghalaya PCB","10-03-2025 23:00:00",25.5803419,91.8942571,NO2,14,66,41
India,Maharashtra,Pimpri-Chinchwad,"Gavalinagar, Pimpri Chinchwad - MPCB","10-03-2025 23:00:00",18.63673,73.82487,PM10,51,139,99
India,Maharashtra,Pimpri-Chinchwad,"Gavalinagar, Pimpri Chinchwad - MPCB","10-03-2025 23:00:00",18.63673,73.82487,NH3,7,9,8
India,Maharashtra,Pimpri-Chinchwad,"Thergaon, Pimpri Chinchwad - MPCB","10-03-2025 23:00:00",18.616318,73.765797,NO2,NA,NA,NA
India,Maharashtra,Pimpri-Chinchwad,"Thergaon, Pimpri Chinchwad - MPCB","10-03-2025 23:00:00",18.616318,73.765797,OZONE,1,52,19
India,Maharashtra,Pune,"Transport Nagar-Nigdi, Pune - IITM","10-03-2025 23:00:00",18.664282,73.763966,OZONE,1,93,71
India,Maharashtra,Sangli,"Vijay Nagar, Sangli - MPCB","10-03-2025 23:00:00"," 16.5038",74.3623,PM2.5,63,175,89
India,Maharashtra,Sangli,"Vijay Nagar, Sangli - MPCB","10-03-2025 23:00:00"," 16.5038",74.3623,PM10,102,199,132
India,Maharashtra,Solapur,"Dnyaneshwar Nagar, Solapur - MPCB","10-03-2025 23:00:00",17.6336264,75.9132495,SO2,1,12,6
India,Maharashtra,Solapur,"Ratandeep Housing Society, Solapur - MPCB","10-03-2025 23:00:00",17.65439,75.90649,PM2.5,46,249,94
India,Maharashtra,Pune,"Savitribai Phule Pune University, Pune - MPCB","10-03-2025 23:00:00",18.547056,73.826908,CO,22,132,58
India,Mizoram,Aizawl,"Sikulpuikawn, Aizawl - Mizoram PCB","10-03-2025 23:00:00",23.7176342,92.7192841,PM2.5,5,35,18
India,Odisha,Angul,"Hakimapada, Angul - OSPCB","10-03-2025 23:00:00",20.832874,85.104082,PM10,76,500,134
India,Odisha,Rourkela,"Fertilizer Township, Rourkela - OSPCB","10-03-2025 23:00:00",22.18972222,84.86277778,PM10,NA,NA,NA
India,Odisha,Rourkela,"Fertilizer Township, Rourkela - OSPCB","10-03-2025 23:00:00",22.18972222,84.86277778,SO2,NA,NA,NA
India,Odisha,Rourkela,"Raghunathpali, Rourkela - OSPCB","10-03-2025 23:00:00",22.220833,84.809444,CO,64,103,81
India,Odisha,Rourkela,"Sector-2, Rourkela - OSPCB","10-03-2025 23:00:00",22.24500000,84.88111111,NO2,NA,NA,NA
India,Odisha,Suakati,"OMC Colony, Suakati - OSPCB","10-03-2025 23:00:00",21.606865,85.510538,NO2,17,21,19
India,Odisha,Suakati,"OMC Colony, Suakati - OSPCB","10-03-2025 23:00:00",21.606865,85.510538,CO,30,34,31
India,Odisha,Talcher,"Talcher Coalfields,Talcher - OSPCB","10-03-2025 23:00:00",20.9360711,85.1707021,PM2.5,8,333,121
India,Odisha,Byasanagar,"Ferro Chrome Colony, Byasanagar - OSPCB","10-03-2025 23:00:00",20.94185,86.11510,NH3,2,4,2
India,Odisha,Byasanagar,"Ferro Chrome Colony, Byasanagar - OSPCB","10-03-2025 23:00:00",20.94185,86.11510,CO,23,38,29
India,Odisha,Cuttack,"CDA Area, Cuttack - OSPCB","10-03-2025 23:00:00","20.48891     ","85.84768     ",PM2.5,40,137,86
India,Odisha,Cuttack,"CDA Area, Cuttack - OSPCB","10-03-2025 23:00:00","20.48891     ","85.84768     ",NH3,2,3,3
India,Odisha,Bhubaneswar,"Patia, Bhubaneswar - OSPCB","10-03-2025 23:00:00",20.34652,85.81630,SO2,2,6,4
India,Odisha,Brajrajnagar,"GM Office, Brajrajnagar - OSPCB","10-03-2025 23:00:00",21.8004996,83.8396977,NO2,10,11,10
India,Punjab,Jalandhar,"Civil Line, Jalandhar - PPCB","10-03-2025 23:00:00",31.321907,75.578914,SO2,16,19,17
India,Punjab,Khanna,"Kalal Majra, Khanna - PPCB","10-03-2025 23:00:00","30.736056 ",76.209694,PM10,74,129,100
India,Punjab,Amritsar,"Golden Temple, Amritsar - PPCB","10-03-2025 23:00:00",31.620000,74.876512,SO2,3,101,45
India,Punjab,Bathinda,"Hardev Nagar, Bathinda - PPCB","10-03-2025 23:00:00",30.233011,74.907758,PM2.5,38,91,65
India,Odisha,Tensa,"Barsua Iron Ore Mines, Tensa - OSPCB","10-03-2025 23:00:00",21.869985,85.167016,CO,28,48,41
India,Odisha,Barbil,"Forest Office, Barbil - OSPCB","10-03-2025 23:00:00",22.1166054,85.3945546,SO2,8,42,24
India,Punjab,Jalandhar,"Civil Line, Jalandhar - PPCB","10-03-2025 23:00:00",31.321907,75.578914,NO2,18,23,20
India,Odisha,Nayagarh,"Dabuna, Nayagarh - OSPCB","10-03-2025 23:00:00",21.847279,85.416905,PM2.5,82,207,135
India,Rajasthan,Bhiwadi,"Vasundhara Nagar_UIT, Bhiwadi - RSPCB","10-03-2025 23:00:00",28.207266,76.829265,NH3,3,18,10
India,Rajasthan,Bhiwadi,"Vasundhara Nagar_UIT, Bhiwadi - RSPCB","10-03-2025 23:00:00",28.207266,76.829265,CO,18,76,37
India,Rajasthan,Bundi,"New Colony, Bundi - RSPCB","10-03-2025 23:00:00",25.435774,75.644272,PM10,74,276,135
India,Rajasthan,Bundi,"New Colony, Bundi - RSPCB","10-03-2025 23:00:00",25.435774,75.644272,OZONE,10,107,58
India,Rajasthan,Chittorgarh,"Shastri Nagar, Chittorgarh - RSPCB","10-03-2025 23:00:00",24.892047,74.623527,PM2.5,26,186,78
India,Rajasthan,Chittorgarh,"Shastri Nagar, Chittorgarh - RSPCB","10-03-2025 23:00:00",24.892047,74.623527,PM10,39,187,109
India,Rajasthan,Chittorgarh,"Shastri Nagar, Chittorgarh - RSPCB","10-03-2025 23:00:00",24.892047,74.623527,NO2,8,112,53
India,Punjab,"Mandi Gobindgarh","RIMT University, Mandi Gobindgarh - PPCB","10-03-2025 23:00:00",30.649961,76.331442,PM2.5,8,134,50
India,Punjab,"Mandi Gobindgarh","RIMT University, Mandi Gobindgarh - PPCB","10-03-2025 23:00:00",30.649961,76.331442,PM10,8,118,51
India,Punjab,"Mandi Gobindgarh","RIMT University, Mandi Gobindgarh - PPCB","10-03-2025 23:00:00",30.649961,76.331442,NO2,23,29,26
India,Punjab,"Mandi Gobindgarh","RIMT University, Mandi Gobindgarh - PPCB","10-03-2025 23:00:00",30.649961,76.331442,OZONE,46,54,48
India,Punjab,Rupnagar,"Ratanpura, Rupnagar - Ambuja Cements","10-03-2025 23:00:00",31.0325454,76.5623046,PM10,40,500,110
India,Rajasthan,Ajmer,"Civil Lines,  Ajmer - RSPCB","10-03-2025 23:00:00",26.470859,74.646594,NO2,36,52,46
India,Rajasthan,Jaipur,"Adarsh Nagar, Jaipur - RSPCB","10-03-2025 23:00:00",26.902909,75.836858,PM2.5,43,84,62
India,Rajasthan,Jaipur,"Mansarovar Sector-12, Jaipur - RSPCB","10-03-2025 23:00:00",26.843698,75.766894,NO2,8,137,39
India,Rajasthan,Jaipur,"Police Commissionerate, Jaipur - RSPCB","10-03-2025 23:00:00",26.9164092,75.7994901,NH3,16,28,22
India,Rajasthan,Jaipur,"Police Commissionerate, Jaipur - RSPCB","10-03-2025 23:00:00",26.9164092,75.7994901,CO,14,82,43
India,Rajasthan,Jaipur,"RIICO Sitapura, Jaipur - RSPCB","10-03-2025 23:00:00",26.786682,75.827928,NH3,1,4,3
India,Rajasthan,Alwar,"Moti Doongri, Alwar - RSPCB","10-03-2025 23:00:00",27.554793,76.611536,PM2.5,36,79,57
India,Rajasthan,Alwar,"Moti Doongri, Alwar - RSPCB","10-03-2025 23:00:00",27.554793,76.611536,NO2,42,73,57
India,Rajasthan,Alwar,"Moti Doongri, Alwar - RSPCB","10-03-2025 23:00:00",27.554793,76.611536,NH3,11,19,14
India,Rajasthan,Banswara,"Rati Talai, Banswara - RSPCB","10-03-2025 23:00:00",23.555190,74.440010,OZONE,16,161,100
India,Rajasthan,Baran,"Bamboliya, Baran - RSPCB","10-03-2025 23:00:00",25.106006,76.469948,NH3,2,4,3
India,Rajasthan,Barmer,"Railway Colony, Barmer - RSPCB","10-03-2025 23:00:00",25.747299,71.393989,NH3,4,38,10
India,Rajasthan,Bharatpur,"Krishna Nagar, Bharatpur - RSPCB","10-03-2025 23:00:00",27.215415,77.50873,PM2.5,36,124,68
India,Rajasthan,Bharatpur,"Krishna Nagar, Bharatpur - RSPCB","10-03-2025 23:00:00",27.215415,77.50873,CO,12,70,37
India,Rajasthan,Bhilwara,"Pratap Nagar, Bhilwara - RSPCB","10-03-2025 23:00:00",25.339605,74.618883,NO2,8,121,40
India,Rajasthan,Chittorgarh,"Shastri Nagar, Chittorgarh - RSPCB","10-03-2025 23:00:00",24.892047,74.623527,CO,15,88,40
India,Rajasthan,Churu,"Subash Chowk, Churu - RSPCB","10-03-2025 23:00:00",28.296139,74.961696,PM10,35,485,101
India,Rajasthan,Churu,"Subash Chowk, Churu - RSPCB","10-03-2025 23:00:00",28.296139,74.961696,NO2,13,59,28
India,Rajasthan,Churu,"Subash Chowk, Churu - RSPCB","10-03-2025 23:00:00",28.296139,74.961696,NH3,6,37,11
India,Rajasthan,Dausa,"Khatikan Mohalla, Dausa - RSPCB","10-03-2025 23:00:00",26.895552,76.334753,NH3,7,9,8
India,Rajasthan,Dausa,"Khatikan Mohalla, Dausa - RSPCB","10-03-2025 23:00:00",26.895552,76.334753,SO2,3,12,6
India,Rajasthan,Dholpur,"Raja Ganj, Dholpur - RSPCB","10-03-2025 23:00:00",26.699557,77.898881,SO2,5,14,9
India,Rajasthan,Hanumangarh,"Housing Board, Hanumangarh - RSPCB","10-03-2025 23:00:00",29.610750,74.283608,SO2,15,21,17
India,Rajasthan,Hanumangarh,"Housing Board, Hanumangarh - RSPCB","10-03-2025 23:00:00",29.610750,74.283608,OZONE,26,84,67
India,Rajasthan,Dausa,"Khatikan Mohalla, Dausa - RSPCB","10-03-2025 23:00:00",26.895552,76.334753,PM10,45,118,84
India,Rajasthan,Tonk,"Shastri Nagar, Tonk - RSPCB","10-03-2025 23:00:00",26.159933,75.780517,NH3,5,9,7
India,Rajasthan,Tonk,"Shastri Nagar, Tonk - RSPCB","10-03-2025 23:00:00",26.159933,75.780517,OZONE,17,93,59
India,Rajasthan,Udaipur,"Ashok Nagar, Udaipur - RSPCB","10-03-2025 23:00:00",24.5886166,73.6321397,NH3,7,7,7
India,Rajasthan,Udaipur,"Ashok Nagar, Udaipur - RSPCB","10-03-2025 23:00:00",24.5886166,73.6321397,OZONE,3,77,34
India,TamilNadu,Chengalpattu,"Crescent University, Chengalpattu - TNPCB","10-03-2025 23:00:00",12.8777316,80.0834807,PM10,48,98,67
India,TamilNadu,Chengalpattu,"Crescent University, Chengalpattu - TNPCB","10-03-2025 23:00:00",12.8777316,80.0834807,SO2,15,16,16
India,TamilNadu,Chennai,"Alandur Bus Depot, Chennai - CPCB","10-03-2025 23:00:00",12.9099161,80.1076538,PM10,NA,NA,NA
India,Rajasthan,Jodhpur,"Collectorate, Jodhpur - RSPCB","10-03-2025 23:00:00",26.268249,73.0193853,CO,14,166,166
India,Rajasthan,Jodhpur,"Collectorate, Jodhpur - RSPCB","10-03-2025 23:00:00",26.268249,73.0193853,OZONE,1,88,36
India,Rajasthan,Jodhpur,"Digari Kalan, Jodhpur - RSPCB","10-03-2025 23:00:00",26.295810,73.082283,SO2,2,26,9
India,Rajasthan,Jodhpur,"Digari Kalan, Jodhpur - RSPCB","10-03-2025 23:00:00",26.295810,73.082283,CO,15,117,54
India,Rajasthan,Jodhpur,"Jhalamand, Jodhpur - RSPCB","10-03-2025 23:00:00",26.215415,73.070156,NO2,6,94,39
India,Rajasthan,Jodhpur,"Jhalamand, Jodhpur - RSPCB","10-03-2025 23:00:00",26.215415,73.070156,SO2,4,24,8
India,Rajasthan,Jodhpur,"Jhalamand, Jodhpur - RSPCB","10-03-2025 23:00:00",26.215415,73.070156,CO,10,92,40
India,Rajasthan,Jodhpur,"Mandor, Jodhpur - RSPCB","10-03-2025 23:00:00",26.358805,73.047444,OZONE,2,92,54
India,Rajasthan,Pali,"Indira Colony Vistar, Pali - RSPCB","10-03-2025 23:00:00",25.771061," 73.340227",PM10,65,438,150
India,Rajasthan,Pratapgarh,"Pragati Nagar, Pratapgarh - RSPCB","10-03-2025 23:00:00",24.041198,74.780702,PM10,61,225,115
India,Rajasthan,Pratapgarh,"Pragati Nagar, Pratapgarh - RSPCB","10-03-2025 23:00:00",24.041198,74.780702,NO2,12,90,36
India,Rajasthan,Rajsamand,"Dhoinda, Rajsamand - RSPCB","10-03-2025 23:00:00",25.036360,73.883502,PM10,23,176,72
India,Rajasthan,"Sawai Madhopur","Sahu Nagar, Sawai Madhopur - RSPCB","10-03-2025 23:00:00",26.031443,76.359327,SO2,1,2,1
India,Rajasthan,"Sawai Madhopur","Sahu Nagar, Sawai Madhopur - RSPCB","10-03-2025 23:00:00",26.031443,76.359327,OZONE,27,144,83
India,Rajasthan,Sikar,"Radhakishan Pura, Sikar - RSPCB","10-03-2025 23:00:00",27.608912,75.153302,NO2,13,74,30
India,Rajasthan,Sikar,"Radhakishan Pura, Sikar - RSPCB","10-03-2025 23:00:00",27.608912,75.153302,NH3,5,10,8
India,Rajasthan,Sikar,"Radhakishan Pura, Sikar - RSPCB","10-03-2025 23:00:00",27.608912,75.153302,SO2,5,21,10
India,Rajasthan,Sirohi,"Vedhaynath Colony, Sirohi - RSPCB","10-03-2025 23:00:00",24.885261,72.857549,NH3,3,7,5
India,Rajasthan,Sirohi,"Vedhaynath Colony, Sirohi - RSPCB","10-03-2025 23:00:00",24.885261,72.857549,CO,6,54,23
India,Rajasthan,"Sri Ganganagar","Old City, Sri Ganganagar - RSPCB","10-03-2025 23:00:00",29.931624,73.864511,SO2,1,8,5
India,Rajasthan,Kota,"Dhanmandi, Kota - RSPCB","10-03-2025 23:00:00",25.164090,75.858137,CO,20,103,53
India,Rajasthan,Kota,"Nayapura, Kota - RSPCB","10-03-2025 23:00:00",25.196024,75.855668,NO2,24,86,42
India,Rajasthan,Kota,"Shrinath Puram, Kota - RSPCB","10-03-2025 23:00:00",25.14389,75.821256,OZONE,18,45,31
India,Rajasthan,Nagaur,"Karni Colony, Nagaur - RSPCB","10-03-2025 23:00:00",27.213494,73.734444,PM2.5,6,320,112
India,Rajasthan,Jodhpur,"Samrat Ashok Udhyan, Jodhpur - RSPCB","10-03-2025 23:00:00",26.253384,72.976571,NO2,7,119,47
India,Rajasthan,Jodhpur,"Samrat Ashok Udhyan, Jodhpur - RSPCB","10-03-2025 23:00:00",26.253384,72.976571,NH3,4,14,10
India,Rajasthan,Jodhpur,"Samrat Ashok Udhyan, Jodhpur - RSPCB","10-03-2025 23:00:00",26.253384,72.976571,CO,12,136,67
India,Rajasthan,Karauli,"Satyawati Vihar, Karauli - RSPCB","10-03-2025 23:00:00",26.506177,77.025989,PM2.5,13,77,35
India,Rajasthan,Karauli,"Satyawati Vihar, Karauli - RSPCB","10-03-2025 23:00:00",26.506177,77.025989,NH3,4,10,6
India,Rajasthan,Jaipur,"Sector-2 Murlipura, Jaipur - RSPCB","10-03-2025 23:00:00",26.960669,75.771817,NH3,3,10,5
India,Rajasthan,Jaipur,"Sector-2 Murlipura, Jaipur - RSPCB","10-03-2025 23:00:00",26.960669,75.771817,CO,26,74,32
India,Rajasthan,Jaipur,"Sector-2 Murlipura, Jaipur - RSPCB","10-03-2025 23:00:00",26.960669,75.771817,OZONE,2,78,39
India,Rajasthan,Jaipur,"Shastri Nagar, Jaipur - RSPCB","10-03-2025 23:00:00",26.9502929,75.730943,NO2,21,102,36
India,Rajasthan,Jalore,"Mudtra Sili, Jalore - RSPCB","10-03-2025 23:00:00",25.344694,72.626208,PM10,33,320,135
India,Rajasthan,Jalore,"Mudtra Sili, Jalore - RSPCB","10-03-2025 23:00:00",25.344694,72.626208,SO2,2,9,4
India,Rajasthan,Jhunjhunu,"Indra Nagar, Jhunjhunu - RSPCB","10-03-2025 23:00:00",28.108988,75.386577,PM10,61,263,112
India,TamilNadu,Perundurai,"SIPCOT Industrial Park, Perundurai - TNPCB","10-03-2025 23:00:00",11.258242,77.552761,NO2,2,4,3
India,TamilNadu,Pudukottai,"SIPCOT Nathampannai, Pudukottai - TNPCB","10-03-2025 23:00:00",10.423417,78.784889,NO2,14,22,17
India,TamilNadu,Ramanathapuram,"Chalai Bazaar, Ramanathapuram - TNPCB","10-03-2025 23:00:00",9.36399,78.831977,NH3,1,1,1
India,TamilNadu,Ramanathapuram,"Chalai Bazaar, Ramanathapuram - TNPCB","10-03-2025 23:00:00",9.36399,78.831977,OZONE,13,15,14
India,TamilNadu,Ranipet,"VOC Nagar_SIPCOT, Ranipet - TNPCB","10-03-2025 23:00:00",12.952707,79.30394,SO2,NA,NA,NA
India,TamilNadu,Ranipet,"VOC Nagar_SIPCOT, Ranipet - TNPCB","10-03-2025 23:00:00",12.952707,79.30394,CO,15,21,18
India,TamilNadu,Thanjavur,"Parisutham Nagar, Thanjavur - TNPCB","10-03-2025 23:00:00",10.7654824,79.1389968,NH3,2,2,2
India,TamilNadu,Tiruchirappalli,"St Joseph College, Tiruchirappalli - TNPCB","10-03-2025 23:00:00",10.830158,78.691849,SO2,19,19,19
India,TamilNadu,Tiruchirappalli,"St Joseph College, Tiruchirappalli - TNPCB","10-03-2025 23:00:00",10.830158,78.691849,OZONE,8,23,9
India,TamilNadu,Tirunelveli,"Municipal Corporation Office, Tirunelveli - TNPCB","10-03-2025 23:00:00",8.728442,77.6962,PM2.5,18,33,25
India,TamilNadu,Tirunelveli,"Municipal Corporation Office, Tirunelveli - TNPCB","10-03-2025 23:00:00",8.728442,77.6962,NO2,3,9,6
India,TamilNadu,Tirunelveli,"Municipal Corporation Office, Tirunelveli - TNPCB","10-03-2025 23:00:00",8.728442,77.6962,SO2,19,20,19
India,TamilNadu,Ooty,"Bombay Castel, Ooty - TNPCB","10-03-2025 23:00:00",11.4068288,76.7138973,PM10,NA,NA,NA
India,TamilNadu,Ooty,"Bombay Castel, Ooty - TNPCB","10-03-2025 23:00:00",11.4068288,76.7138973,CO,24,27,26
India,TamilNadu,Ooty,"Bombay Castel, Ooty - TNPCB","10-03-2025 23:00:00",11.4068288,76.7138973,OZONE,5,6,5
India,TamilNadu,Palkalaiperur,"Bharathidasan University, Palkalaiperur - TNPCB","10-03-2025 23:00:00",10.681158,78.741746,PM2.5,31,45,36
India,TamilNadu,Palkalaiperur,"Bharathidasan University, Palkalaiperur - TNPCB","10-03-2025 23:00:00",10.681158,78.741746,PM10,38,56,44
India,TamilNadu,Palkalaiperur,"Bharathidasan University, Palkalaiperur - TNPCB","10-03-2025 23:00:00",10.681158,78.741746,NO2,10,10,10
India,TamilNadu,Chennai,"Perungudi, Chennai - TNPCB","10-03-2025 23:00:00",12.9533,80.2357,PM10,44,109,79
India,TamilNadu,Chennai,"Perungudi, Chennai - TNPCB","10-03-2025 23:00:00",12.9533,80.2357,NO2,2,7,4
India,TamilNadu,Chennai,"Royapuram, Chennai - TNPCB","10-03-2025 23:00:00",13.1036,80.2909,NH3,3,4,3
India,TamilNadu,Chennai,"Velachery Res. Area, Chennai - CPCB","10-03-2025 23:00:00",13.0052189,80.2398125,SO2,7,9,8
India,TamilNadu,Chennai,"Velachery Res. Area, Chennai - CPCB","10-03-2025 23:00:00",13.0052189,80.2398125,OZONE,5,11,8
India,TamilNadu,Chennai,"Kodungaiyur, Chennai - TNPCB","10-03-2025 23:00:00",13.1278,80.2642,OZONE,7,31,22
India,TamilNadu,Chennai,"Manali Village, Chennai - TNPCB","10-03-2025 23:00:00",13.1662,80.2584,SO2,11,17,14
India,TamilNadu,Chennai,"Manali, Chennai - CPCB","10-03-2025 23:00:00",13.164544,80.26285,PM2.5,24,56,40
India,TamilNadu,Chennai,"Manali, Chennai - CPCB","10-03-2025 23:00:00",13.164544,80.26285,PM10,47,93,64
India,TamilNadu,Chennai,"Manali, Chennai - CPCB","10-03-2025 23:00:00",13.164544,80.26285,SO2,13,42,20
India,TamilNadu,Cuddalore,"Semmandalam, Cuddalore - TNPCB","10-03-2025 23:00:00",11.7637683,79.7499835,PM10,22,95,47
India,TamilNadu,Gummidipoondi,"Anthoni Pillai Nagar, Gummidipoondi - TNPCB","10-03-2025 23:00:00",13.4127,80.1081,NO2,17,52,31
India,TamilNadu,Kanchipuram,"Kilambi, Kanchipuram - TNPCB","10-03-2025 23:00:00",12.864618,79.659968,PM10,26,88,46
India,TamilNadu,Karur,"Kamadenu Nagar, Karur - TNPCB","10-03-2025 23:00:00",10.967820,78.080882,CO,19,62,35
India,TamilNadu,Madurai,"Uchapatti, Madurai - TNPCB","10-03-2025 23:00:00",9.865935,78.022669,PM2.5,22,126,53
India,TamilNadu,Chennai,"Arumbakkam, Chennai - TNPCB","10-03-2025 23:00:00",13.0664,"80.2112 ",PM2.5,24,71,45
India,TamilNadu,Chennai,"Arumbakkam, Chennai - TNPCB","10-03-2025 23:00:00",13.0664,"80.2112 ",PM10,36,104,67
India,TamilNadu,Palkalaiperur,"Bharathidasan University, Palkalaiperur - TNPCB","10-03-2025 23:00:00",10.681158,78.741746,CO,10,12,10
India,Telangana,Hyderabad,"Central University, Hyderabad - TSPCB","10-03-2025 23:00:00",17.460103,78.334361,OZONE,14,18,16
India,Telangana,Hyderabad,"ECIL Kapra, Hyderabad - TSPCB","10-03-2025 23:00:00",17.470431,78.566959,PM2.5,45,60,51
India,Telangana,Hyderabad,"ECIL Kapra, Hyderabad - TSPCB","10-03-2025 23:00:00",17.470431,78.566959,PM10,64,83,71
India,Telangana,Hyderabad,"ICRISAT Patancheru, Hyderabad - TSPCB","10-03-2025 23:00:00",17.518400,78.278777,SO2,6,20,14
India,Telangana,Hyderabad,"IDA Pashamylaram, Hyderabad - TSPCB","10-03-2025 23:00:00",17.5316895,78.218939,CO,20,121,28
India,Telangana,Hyderabad,"IITH Kandi, Hyderabad - TSPCB","10-03-2025 23:00:00",17.585705,78.126199,NH3,2,3,2
India,Uttar_Pradesh,Agra,"Sanjay Palace, Agra - UPPCB","10-03-2025 23:00:00",27.19865833,78.00598056,PM2.5,30,268,130
India,Uttar_Pradesh,Agra,"Sanjay Palace, Agra - UPPCB","10-03-2025 23:00:00",27.19865833,78.00598056,OZONE,39,128,84
India,Uttar_Pradesh,Agra,"Shahjahan Garden, Agra - UPPCB","10-03-2025 23:00:00",27.169338,78.03582,PM10,41,144,103
India,Uttar_Pradesh,Agra,"Shahjahan Garden, Agra - UPPCB","10-03-2025 23:00:00",27.169338,78.03582,NH3,1,1,1
India,Uttar_Pradesh,Agra,"Shahjahan Garden, Agra - UPPCB","10-03-2025 23:00:00",27.169338,78.03582,OZONE,9,89,53
India,Uttar_Pradesh,Agra,"Shastripuram, Agra - UPPCB","10-03-2025 23:00:00",27.19862,77.92066,PM2.5,13,107,53
India,TamilNadu,Virudhunagar,"Collectorate Office, Virudhunagar - TNPCB","10-03-2025 23:00:00",9.559382,77.948828,PM10,46,88,67
India,TamilNadu,Virudhunagar,"Collectorate Office, Virudhunagar - TNPCB","10-03-2025 23:00:00",9.559382,77.948828,CO,20,27,23
India,Telangana,Hyderabad,"Bollaram Industrial Area, Hyderabad - TSPCB","10-03-2025 23:00:00",17.540891,78.358528,PM10,47,120,90
India,Telangana,Hyderabad,"Bollaram Industrial Area, Hyderabad - TSPCB","10-03-2025 23:00:00",17.540891,78.358528,SO2,3,11,7
India,Telangana,Hyderabad,"New Malakpet, Hyderabad - TSPCB","10-03-2025 23:00:00",17.37206,78.50864,PM2.5,NA,NA,NA
India,Telangana,Hyderabad,"Ramachandrapuram, Hyderabad - TSPCB","10-03-2025 23:00:00",17.528544,78.286195,NO2,9,11,10
India,Telangana,Hyderabad,"Somajiguda, Hyderabad - TSPCB","10-03-2025 23:00:00",17.417094,78.457437,NH3,4,5,5
India,Telangana,Hyderabad,"Somajiguda, Hyderabad - TSPCB","10-03-2025 23:00:00",17.417094,78.457437,SO2,7,12,10
India,Telangana,Hyderabad,"Zoo Park, Hyderabad - TSPCB","10-03-2025 23:00:00",17.349694,78.451437,PM10,72,137,109
India,Tripura,Agartala,"Bardowali, Agartala - Tripura SPCB","10-03-2025 23:00:00",23.8175497,91.2726974,SO2,21,27,23
India,Telangana,Hyderabad,"Central University, Hyderabad - TSPCB","10-03-2025 23:00:00",17.460103,78.334361,PM10,NA,NA,NA
India,Telangana,Hyderabad,"Central University, Hyderabad - TSPCB","10-03-2025 23:00:00",17.460103,78.334361,NH3,1,5,3
India,Telangana,Hyderabad,"Nacharam_TSIIC IALA, Hyderabad - TSPCB","10-03-2025 23:00:00",17.429398,78.569354,CO,40,42,41
India,Telangana,Hyderabad,"Nacharam_TSIIC IALA, Hyderabad - TSPCB","10-03-2025 23:00:00",17.429398,78.569354,OZONE,36,37,36
India,TamilNadu,Vellore,"Vasanthapuram, Vellore - TNPCB","10-03-2025 23:00:00",12.909494,79.131861,NO2,14,17,16
India,Uttar_Pradesh,Agra,"Manoharpur, Agra - UPPCB","10-03-2025 23:00:00",27.23711,78.01936,PM10,45,156,90
India,Uttar_Pradesh,Lucknow,"Gomti Nagar, Lucknow - UPPCB","10-03-2025 23:00:00",26.868120,81.005119,OZONE,31,44,41
India,Uttar_Pradesh,Lucknow,"Kendriya Vidyalaya, Lucknow - CPCB","10-03-2025 23:00:00",26.906111,80.948222,PM2.5,78,353,225
India,Uttar_Pradesh,Lucknow,"Kendriya Vidyalaya, Lucknow - CPCB","10-03-2025 23:00:00",26.906111,80.948222,SO2,5,44,17
India,Uttar_Pradesh,Lucknow,"Kukrail Picnic Spot-1, Lucknow - UPPCB","10-03-2025 23:00:00",26.90723,80.98579,CO,15,36,21
India,Uttar_Pradesh,Lucknow,"Kukrail Picnic Spot-1, Lucknow - UPPCB","10-03-2025 23:00:00",26.90723,80.98579,OZONE,13,56,29
India,Uttar_Pradesh,Lucknow,"Lalbagh, Lucknow - CPCB","10-03-2025 23:00:00",26.8458805,80.9365541,PM2.5,76,344,225
India,Uttar_Pradesh,Lucknow,"Lalbagh, Lucknow - CPCB","10-03-2025 23:00:00",26.8458805,80.9365541,NO2,63,118,84
India,Uttar_Pradesh,Lucknow,"Lalbagh, Lucknow - CPCB","10-03-2025 23:00:00",26.8458805,80.9365541,CO,1,97,54
India,Uttar_Pradesh,Jhansi,"Shivaji Nagar, Jhansi - UPPCB","10-03-2025 23:00:00",25.4547,78.6039,CO,8,16,11
India,Uttar_Pradesh,Kanpur,"FTI Kidwai Nagar, Kanpur - UPPCB","10-03-2025 23:00:00",26.428282,80.327067,NH3,2,2,2
India,Uttar_Pradesh,Kanpur,"NSI Kalyanpur, Kanpur - UPPCB","10-03-2025 23:00:00",26.509954,80.249612,PM2.5,32,195,96
India,Uttar_Pradesh,Kanpur,"NSI Kalyanpur, Kanpur - UPPCB","10-03-2025 23:00:00",26.509954,80.249612,NO2,24,24,24
India,Uttar_Pradesh,Kanpur,"Nehru Nagar, Kanpur - UPPCB","10-03-2025 23:00:00",26.4703136,80.3229863,OZONE,6,72,25
India,Uttar_Pradesh,Khurja,"Kalindi Kunj, Khurja - UPPCB","10-03-2025 23:00:00",28.2348927,77.8683002,NH3,1,1,1
India,Uttar_Pradesh,Baghpat,"Sardar Patel Inter College, Baghpat - UPPCB","10-03-2025 23:00:00",28.964949,77.278761,SO2,NA,NA,NA
India,Uttar_Pradesh,Baghpat,"Sardar Patel Inter College, Baghpat - UPPCB","10-03-2025 23:00:00",28.964949,77.278761,OZONE,40,97,66
India,Uttar_Pradesh,Bareilly,"Civil Lines, Bareilly - UPPCB","10-03-2025 23:00:00",28.359581,79.414455,NH3,NA,NA,NA
India,Uttar_Pradesh,Bareilly,"Rajendra Nagar, Bareilly - UPPCB","10-03-2025 23:00:00",28.38910936,79.42963708,PM10,31,59,42
India,Uttar_Pradesh,Bulandshahr,"Yamunapuram, Bulandshahr - UPPCB","10-03-2025 23:00:00",28.406963,77.849831,CO,36,95,63
India,Uttar_Pradesh,Ghaziabad,"Loni, Ghaziabad - UPPCB","10-03-2025 23:00:00",28.757294,77.278792,PM2.5,326,492,375
India,Uttar_Pradesh,Ghaziabad,"Loni, Ghaziabad - UPPCB","10-03-2025 23:00:00",28.757294,77.278792,NH3,8,11,9
India,Uttar_Pradesh,Ghaziabad,"Loni, Ghaziabad - UPPCB","10-03-2025 23:00:00",28.757294,77.278792,OZONE,3,168,89
India,Uttar_Pradesh,Ghaziabad,"Sanjay Nagar, Ghaziabad - UPPCB","10-03-2025 23:00:00",28.685382,77.453839,NO2,23,114,51
India,Uttar_Pradesh,Ghaziabad,"Sanjay Nagar, Ghaziabad - UPPCB","10-03-2025 23:00:00",28.685382,77.453839,NH3,9,12,11
India,Uttar_Pradesh,Khurja,"Kalindi Kunj, Khurja - UPPCB","10-03-2025 23:00:00",28.2348927,77.8683002,CO,24,64,49
India,Uttar_Pradesh,Lucknow,"B R Ambedkar University, Lucknow - UPPCB","10-03-2025 23:00:00",26.766433,80.927299,CO,16,46,22
India,Uttar_Pradesh,Lucknow,"B R Ambedkar University, Lucknow - UPPCB","10-03-2025 23:00:00",26.766433,80.927299,OZONE,1,128,68
India,Uttar_Pradesh,Firozabad,"Nagla Bhau, Firozabad - UPPCB","10-03-2025 23:00:00",27.168897,78.376960,SO2,18,28,24
India,Uttar_Pradesh,Ghaziabad,"Indirapuram, Ghaziabad - UPPCB","10-03-2025 23:00:00",28.646233,77.358075,PM2.5,275,439,334
India,Uttar_Pradesh,Ghaziabad,"Indirapuram, Ghaziabad - UPPCB","10-03-2025 23:00:00",28.646233,77.358075,NO2,59,177,90
India,Uttar_Pradesh,Agra,"Shastripuram, Agra - UPPCB","10-03-2025 23:00:00",27.19862,77.92066,CO,12,23,16
India,Uttar_Pradesh,Baghpat,"Sardar Patel Inter College, Baghpat - UPPCB","10-03-2025 23:00:00",28.964949,77.278761,NO2,NA,NA,NA
India,Uttar_Pradesh,"Greater Noida","Knowledge Park - V, Greater Noida - UPPCB","10-03-2025 23:00:00",28.557054,77.453663,PM10,90,440,167
India,Uttar_Pradesh,"Greater Noida","Knowledge Park - V, Greater Noida - UPPCB","10-03-2025 23:00:00",28.557054,77.453663,OZONE,2,120,58
India,Uttar_Pradesh,Ghaziabad,"Vasundhara, Ghaziabad - UPPCB","10-03-2025 23:00:00",28.6603346,77.3572563,NO2,42,114,62
India,Uttar_Pradesh,Meerut,"Jai Bhim Nagar, Meerut - UPPCB","10-03-2025 23:00:00",28.9535882,77.7622941,OZONE,14,58,40
India,Uttar_Pradesh,Meerut,"Pallavpuram Phase 2, Meerut - UPPCB","10-03-2025 23:00:00",29.063510,77.709723,NO2,6,40,13
India,Uttar_Pradesh,Moradabad,"Buddhi Vihar, Moradabad - UPPCB","10-03-2025 23:00:00",28.83526,78.74460,PM10,55,134,77
India,Uttar_Pradesh,Moradabad,"Buddhi Vihar, Moradabad - UPPCB","10-03-2025 23:00:00",28.83526,78.74460,NO2,23,24,23
India,Uttar_Pradesh,Moradabad,"Buddhi Vihar, Moradabad - UPPCB","10-03-2025 23:00:00",28.83526,78.74460,CO,28,72,45
India,Uttar_Pradesh,Moradabad,"Eco Herbal Park, Moradabad - UPPCB","10-03-2025 23:00:00",28.840739,78.697531,PM2.5,25,46,33
India,Uttar_Pradesh,Moradabad,"Eco Herbal Park, Moradabad - UPPCB","10-03-2025 23:00:00",28.840739,78.697531,NO2,20,52,33
India,Uttar_Pradesh,Noida,"Sector - 62, Noida - IMD","10-03-2025 23:00:00",28.6245479,77.3577104,OZONE,32,73,55
India,Uttar_Pradesh,Noida,"Sector-1, Noida - UPPCB","10-03-2025 23:00:00",28.5898,77.3101,PM10,52,133,92
India,Uttar_Pradesh,Noida,"Sector-1, Noida - UPPCB","10-03-2025 23:00:00",28.5898,77.3101,SO2,4,9,7
India,Uttar_Pradesh,Noida,"Sector-1, Noida - UPPCB","10-03-2025 23:00:00",28.5898,77.3101,OZONE,7,58,31
India,Uttar_Pradesh,Noida,"Sector-116, Noida - UPPCB","10-03-2025 23:00:00",28.569230,77.393848,PM10,94,270,149
India,Uttar_Pradesh,Prayagraj,"Jhunsi, Prayagraj - UPPCB","10-03-2025 23:00:00",25.425602,81.917152,PM2.5,11,44,27
India,Uttar_Pradesh,Prayagraj,"Jhunsi, Prayagraj - UPPCB","10-03-2025 23:00:00",25.425602,81.917152,OZONE,3,67,25
India,Uttar_Pradesh,Varanasi,"Bhelupur, Varanasi - UPPCB","10-03-2025 23:00:00",25.301778,82.996789,SO2,31,33,32
India,Uttar_Pradesh,Varanasi,"IESD Banaras Hindu University, Varanasi - UPPCB","10-03-2025 23:00:00",25.262326,82.995408,NH3,4,9,6
India,Uttar_Pradesh,Varanasi,"Maldahiya, Varanasi - UPPCB","10-03-2025 23:00:00",25.32393,82.99687,PM2.5,10,40,23
India,Uttar_Pradesh,Varanasi,"Maldahiya, Varanasi - UPPCB","10-03-2025 23:00:00",25.32393,82.99687,OZONE,1,15,5
India,Uttar_Pradesh,Vrindavan,"Omex Eternity, Vrindavan - UPPCB","10-03-2025 23:00:00",27.5714090,77.6557570,SO2,25,38,27
India,Uttar_Pradesh,Vrindavan,"Omex Eternity, Vrindavan - UPPCB","10-03-2025 23:00:00",27.5714090,77.6557570,CO,8,45,34
India,Uttar_Pradesh,Moradabad,"Transport Nagar, Moradabad - UPPCB","10-03-2025 23:00:00",28.802625,78.753728,NH3,5,5,5
India,Uttar_Pradesh,Muzaffarnagar,"New Mandi, Muzaffarnagar - UPPCB","10-03-2025 23:00:00",29.4723508,77.7194031,NO2,21,112,42
India,Uttar_Pradesh,Muzaffarnagar,"New Mandi, Muzaffarnagar - UPPCB","10-03-2025 23:00:00",29.4723508,77.7194031,NH3,6,9,7
India,Uttar_Pradesh,Muzaffarnagar,"New Mandi, Muzaffarnagar - UPPCB","10-03-2025 23:00:00",29.4723508,77.7194031,SO2,4,45,18
India,Uttar_Pradesh,Meerut,"Ganga Nagar, Meerut - UPPCB","10-03-2025 23:00:00",28.999264,77.7590354,SO2,6,28,17
India,Uttar_Pradesh,Meerut,"Jai Bhim Nagar, Meerut - UPPCB","10-03-2025 23:00:00",28.9535882,77.7622941,PM2.5,38,89,68
India,Uttar_Pradesh,Meerut,"Jai Bhim Nagar, Meerut - UPPCB","10-03-2025 23:00:00",28.9535882,77.7622941,PM10,82,133,104
India,Uttar_Pradesh,Meerut,"Jai Bhim Nagar, Meerut - UPPCB","10-03-2025 23:00:00",28.9535882,77.7622941,NH3,8,11,10
India,Uttar_Pradesh,Moradabad,"Employment Office, Moradabad - UPPCB","10-03-2025 23:00:00",28.88528,78.73880,SO2,25,30,27
India,Uttar_Pradesh,Moradabad,"Jigar Colony, Moradabad - UPPCB","10-03-2025 23:00:00",28.856664,78.772638,PM2.5,50,123,64
India,Uttar_Pradesh,Moradabad,"Jigar Colony, Moradabad - UPPCB","10-03-2025 23:00:00",28.856664,78.772638,NH3,6,6,6
India,Uttar_Pradesh,Moradabad,"Employment Office, Moradabad - UPPCB","10-03-2025 23:00:00",28.88528,78.73880,PM2.5,47,95,67
India,Uttar_Pradesh,Varanasi,"Ardhali Bazar, Varanasi - UPPCB","10-03-2025 23:00:00",25.3505986,82.9083074,PM2.5,25,99,65
India,Uttar_Pradesh,Prayagraj,"Motilal Nehru NIT, Prayagraj - UPPCB","10-03-2025 23:00:00",25.494,81.863,PM10,14,49,30
India,Uttarakhand,Dehradun,"Doon University, Dehradun - UKPCB","10-03-2025 23:00:00",30.269444,78.044167,SO2,1,3,1
India,Uttarakhand,Rishikesh,"Shivaji Nagar, Rishikesh - UKPCB","10-03-2025 23:00:00",30.075911,78.2859547,PM10,54,94,74
India,Uttarakhand,Rishikesh,"Shivaji Nagar, Rishikesh - UKPCB","10-03-2025 23:00:00",30.075911,78.2859547,NH3,5,8,6
India,West_Bengal,Asansol,"Asansol Court Area, Asansol - WBPCB","10-03-2025 23:00:00",23.685297,86.945968,NO2,10,62,28
India,West_Bengal,Asansol,"Asansol Court Area, Asansol - WBPCB","10-03-2025 23:00:00",23.685297,86.945968,SO2,11,52,21
India,West_Bengal,Asansol,"Mahabir Colliery, Asansol - WBPCB","10-03-2025 23:00:00",23.6181830,87.1057180,PM2.5,55,257,121
India,West_Bengal,Asansol,"Mahabir Colliery, Asansol - WBPCB","10-03-2025 23:00:00",23.6181830,87.1057180,NO2,11,112,37
India,West_Bengal,Barrackpore,"SVSPA Campus, Barrackpore - WBPCB","10-03-2025 23:00:00",22.7605581,88.3617589,PM2.5,66,115,84
India,West_Bengal,Barrackpore,"SVSPA Campus, Barrackpore - WBPCB","10-03-2025 23:00:00",22.7605581,88.3617589,NO2,13,24,18
India,West_Bengal,Durgapur,"Mahishkapur Road_B-Zone, Durgapur - WBPCB","10-03-2025 23:00:00",23.567923,87.306843,PM2.5,74,188,110
India,West_Bengal,Durgapur,"PCBL Residential Complex, Durgapur - WBPCB","10-03-2025 23:00:00",23.5087640,87.3544400,PM10,77,171,124
India,West_Bengal,Durgapur,"PCBL Residential Complex, Durgapur - WBPCB","10-03-2025 23:00:00",23.5087640,87.3544400,CO,49,104,65
India,West_Bengal,Durgapur,"PCBL Residential Complex, Durgapur - WBPCB","10-03-2025 23:00:00",23.5087640,87.3544400,OZONE,15,77,53
India,West_Bengal,Durgapur,"Sidhu Kanhu Indoor Stadium, Durgapur - WBPCB","10-03-2025 23:00:00",23.5404352,87.2892225,OZONE,4,77,44
India,West_Bengal,Haldia,"Priyambada Housing Estate, Haldia - WBPCB","10-03-2025 23:00:00",22.06047,88.109737,PM2.5,44,189,79
India,West_Bengal,Haldia,"Priyambada Housing Estate, Haldia - WBPCB","10-03-2025 23:00:00",22.06047,88.109737,NH3,6,9,7
India,West_Bengal,Haldia,"Priyambada Housing Estate, Haldia - WBPCB","10-03-2025 23:00:00",22.06047,88.109737,CO,30,54,34
India,West_Bengal,Haldia,"Priyambada Housing Estate, Haldia - WBPCB","10-03-2025 23:00:00",22.06047,88.109737,OZONE,22,76,25
India,West_Bengal,Howrah,"Botanical Garden, Howrah - WBPCB","10-03-2025 23:00:00",22.554954,88.292568,CO,86,100,92
India,West_Bengal,Howrah,"Dasnagar, Howrah - WBPCB","10-03-2025 23:00:00",22.6025571,88.3105664,PM10,NA,NA,NA
India,West_Bengal,Howrah,"Dasnagar, Howrah - WBPCB","10-03-2025 23:00:00",22.6025571,88.3105664,SO2,4,34,15
India,West_Bengal,Howrah,"Dasnagar, Howrah - WBPCB","10-03-2025 23:00:00",22.6025571,88.3105664,OZONE,6,252,91
India,West_Bengal,Kolkata,"Ballygunge, Kolkata - WBPCB","10-03-2025 23:00:00",22.5367507,88.3638022,NO2,11,58,33
India,West_Bengal,Kolkata,"Ballygunge, Kolkata - WBPCB","10-03-2025 23:00:00",22.5367507,88.3638022,OZONE,10,74,46
India,West_Bengal,Kolkata,"Bidhannagar, Kolkata - WBPCB","10-03-2025 23:00:00",22.58157048,88.41002457,NO2,43,69,53
India,West_Bengal,Kolkata,"Fort William, Kolkata - WBPCB","10-03-2025 23:00:00",22.556640,88.342674,PM2.5,57,113,77
India,West_Bengal,Kolkata,"Jadavpur, Kolkata - WBPCB","10-03-2025 23:00:00",22.49929,88.36917,PM10,110,149,122
India,West_Bengal,Kolkata,"Rabindra Bharati University, Kolkata - WBPCB","10-03-2025 23:00:00",22.627847,88.380669,PM2.5,73,104,83
India,West_Bengal,Kolkata,"Victoria, Kolkata - WBPCB","10-03-2025 23:00:00",22.5448082,88.3403691,CO,2,48,22
India,West_Bengal,Siliguri,"Ward-32 Bapupara, Siliguri - WBPCB","10-03-2025 23:00:00",26.6879226,88.4152495,CO,32,84,59
India,Bihar,Bettiah,"Kamalnath Nagar, Bettiah - BSPCB","10-03-2025 23:00:00",26.80365,84.51954,NH3,4,7,5
India,Bihar,Bettiah,"Kamalnath Nagar, Bettiah - BSPCB","10-03-2025 23:00:00",26.80365,84.51954,SO2,11,21,16
India,Bihar,Bhagalpur,"DM Office_Kachari Chowk, Bhagalpur - BSPCB","10-03-2025 23:00:00",25.251013,86.989001,PM10,NA,NA,NA
India,Bihar,Bhagalpur,"DM Office_Kachari Chowk, Bhagalpur - BSPCB","10-03-2025 23:00:00",25.251013,86.989001,NH3,NA,NA,NA
India,Bihar,"Bihar Sharif","D M Colony, Bihar Sharif - BSPCB","10-03-2025 23:00:00",25.204762,85.514960,PM10,NA,NA,NA
India,Bihar,"Bihar Sharif","D M Colony, Bihar Sharif - BSPCB","10-03-2025 23:00:00",25.204762,85.514960,NO2,9,10,9
India,Bihar,"Bihar Sharif","D M Colony, Bihar Sharif - BSPCB","10-03-2025 23:00:00",25.204762,85.514960,CO,11,12,11
India,Bihar,Buxar,"Charitra Van, Buxar - BSPCB","10-03-2025 23:00:00",25.567520,83.966379,PM10,NA,NA,NA
India,Andhra_Pradesh,Kadapa,"Yerramukkapalli, Kadapa - APPCB","10-03-2025 23:00:00",14.465052,78.824187,PM2.5,NA,NA,NA
India,Andhra_Pradesh,Rajamahendravaram,"Anand Kala Kshetram, Rajamahendravaram - APPCB","10-03-2025 23:00:00",16.9872867,81.7363176,PM10,66,109,91
India,Andhra_Pradesh,Tirumala,"Toll Gate, Tirumala - APPCB (Formerly known as Tirumala, Tirupati - APPCB)","10-03-2025 23:00:00",13.67,79.35,PM2.5,38,116,56
India,Andhra_Pradesh,Tirumala,"Toll Gate, Tirumala - APPCB (Formerly known as Tirumala, Tirupati - APPCB)","10-03-2025 23:00:00",13.67,79.35,OZONE,22,36,32
India,Andhra_Pradesh,Tirupati,"Vaikuntapuram, Tirupati - APPCB","10-03-2025 23:00:00",13.615387,79.409230,PM2.5,NA,NA,NA
India,Andhra_Pradesh,Tirupati,"Vaikuntapuram, Tirupati - APPCB","10-03-2025 23:00:00",13.615387,79.409230,NH3,NA,NA,NA
India,Bihar,Buxar,"Charitra Van, Buxar - BSPCB","10-03-2025 23:00:00",25.567520,83.966379,CO,41,90,63
India,Bihar,Gaya,"Kareemganj, Gaya - BSPCB","10-03-2025 23:00:00",24.792403,84.992416,PM2.5,90,335,183
India,Bihar,Gaya,"Kareemganj, Gaya - BSPCB","10-03-2025 23:00:00",24.792403,84.992416,OZONE,19,110,75
India,Bihar,Gaya,"SFTI Kusdihra, Gaya - BSPCB","10-03-2025 23:00:00",24.762518,84.982348,OZONE,18,70,54
India,Bihar,Hajipur,"Industrial Area, Hajipur - BSPCB","10-03-2025 23:00:00",25.697189,85.245900,PM10,122,189,158
India,Bihar,Hajipur,"Industrial Area, Hajipur - BSPCB","10-03-2025 23:00:00",25.697189,85.245900,NO2,19,38,30
India,Bihar,Hajipur,"Industrial Area, Hajipur - BSPCB","10-03-2025 23:00:00",25.697189,85.245900,SO2,5,8,6
India,Andhra_Pradesh,Vijayawada,"Rajiv Nagar, Vijayawada - APPCB","10-03-2025 23:00:00",16.554731,80.649110,PM2.5,49,60,54
India,Andhra_Pradesh,Vijayawada,"Rajiv Nagar, Vijayawada - APPCB","10-03-2025 23:00:00",16.554731,80.649110,NH3,3,5,4
India,Andhra_Pradesh,Visakhapatnam,"GVM Corporation, Visakhapatnam - APPCB","10-03-2025 23:00:00",17.72,83.3,PM10,NA,NA,NA
India,Andhra_Pradesh,Visakhapatnam,"GVM Corporation, Visakhapatnam - APPCB","10-03-2025 23:00:00",17.72,83.3,SO2,6,13,10
India,Arunachal_Pradesh,Naharlagun,"Naharlagun, Naharlagun - APSPCB","10-03-2025 23:00:00",27.103358,93.679645,PM2.5,NA,NA,NA
India,Andhra_Pradesh,Tirupati,"Vaikuntapuram, Tirupati - APPCB","10-03-2025 23:00:00",13.615387,79.409230,SO2,NA,NA,NA
India,Andhra_Pradesh,Vijayawada,"HB Colony, Vijayawada - APPCB","10-03-2025 23:00:00",16.536107,80.594233,PM10,51,77,63
India,Andhra_Pradesh,Vijayawada,"HB Colony, Vijayawada - APPCB","10-03-2025 23:00:00",16.536107,80.594233,OZONE,13,47,30
India,Andhra_Pradesh,Vijayawada,"Kanuru, Vijayawada - APPCB","10-03-2025 23:00:00",16.486692,80.699436,PM2.5,NA,NA,NA
India,Andhra_Pradesh,Vijayawada,"Kanuru, Vijayawada - APPCB","10-03-2025 23:00:00",16.486692,80.699436,PM10,NA,NA,NA
India,Andhra_Pradesh,Vijayawada,"Kanuru, Vijayawada - APPCB","10-03-2025 23:00:00",16.486692,80.699436,NH3,NA,NA,NA
India,Andhra_Pradesh,Vijayawada,"Kanuru, Vijayawada - APPCB","10-03-2025 23:00:00",16.486692,80.699436,SO2,NA,NA,NA
India,Assam,Sivasagar,"Girls College, Sivasagar - PCBA","10-03-2025 23:00:00",26.987634,94.636574,CO,9,54,23
India,Bihar,Araria,"Kharahiya Basti, Araria - BSPCB","10-03-2025 23:00:00",26.146529,87.454184,CO,25,80,48
India,Bihar,Araria,"Kharahiya Basti, Araria - BSPCB","10-03-2025 23:00:00",26.146529,87.454184,OZONE,9,12,10
India,Bihar,Aurangabad,"Gurdeo Nagar, Aurangabad - BSPCB","10-03-2025 23:00:00",24.75746,84.366208,PM2.5,NA,NA,NA
India,Bihar,Aurangabad,"Gurdeo Nagar, Aurangabad - BSPCB","10-03-2025 23:00:00",24.75746,84.366208,SO2,6,17,13
India,"Andaman and Nicobar","Sri Vijaya Puram","Police Line, Sri Vijaya Puram - ANPCC","10-03-2025 23:00:00",11.654054,92.734055,NO2,8,29,18
India,Andhra_Pradesh,Amaravati,"Secretariat, Amaravati - APPCB","10-03-2025 23:00:00",16.5150833,80.5181667,NO2,7,21,12
India,Andhra_Pradesh,Amaravati,"Secretariat, Amaravati - APPCB","10-03-2025 23:00:00",16.5150833,80.5181667,SO2,7,17,13
India,Andhra_Pradesh,Anantapur,"Gulzarpet, Anantapur - APPCB","10-03-2025 23:00:00",14.675886,77.593027,SO2,10,22,12
India,Assam,Guwahati,"Pan Bazaar, Guwahati - PCBA","10-03-2025 23:00:00",26.187500,91.744194,CO,24,104,61
India,Assam,Guwahati,"Railway Colony, Guwahati - PCBA","10-03-2025 23:00:00",26.181742,91.78063,SO2,17,20,19
India,Assam,Nagaon,"Christianpatty, Nagaon - PCBA","10-03-2025 23:00:00",26.349082,92.68449,SO2,6,29,18
India,Assam,Nalbari,"Bata Chowk, Nalbari - PCBA","10-03-2025 23:00:00",26.446912,91.439057,NO2,NA,NA,NA
India,Assam,Nalbari,"Bata Chowk, Nalbari - PCBA","10-03-2025 23:00:00",26.446912,91.439057,OZONE,9,67,66
India,Assam,Silchar,"Tarapur, Silchar - PCBA","10-03-2025 23:00:00",24.82827,92.79525,PM10,54,77,56
India,Assam,Sivasagar,"Girls College, Sivasagar - PCBA","10-03-2025 23:00:00",26.987634,94.636574,PM2.5,15,98,63
India,Arunachal_Pradesh,Naharlagun,"Naharlagun, Naharlagun - APSPCB","10-03-2025 23:00:00",27.103358,93.679645,NO2,NA,NA,NA
India,Assam,Byrnihat,"Central Academy for SFS, Byrnihat - PCBA","10-03-2025 23:00:00",26.071318,91.87488,NO2,NA,NA,NA
India,Bihar,Sasaram,"Dada Peer, Sasaram - BSPCB","10-03-2025 23:00:00",24.952822,84.002396,NO2,2,3,2
India,Bihar,Sasaram,"Dada Peer, Sasaram - BSPCB","10-03-2025 23:00:00",24.952822,84.002396,NH3,3,3,3
India,Bihar,Sasaram,"Dada Peer, Sasaram - BSPCB","10-03-2025 23:00:00",24.952822,84.002396,CO,49,56,51
India,Bihar,Siwan,"Chitragupta Nagar, Siwan - BSPCB","10-03-2025 23:00:00",26.2271665,84.3570427,NH3,1,2,2
India,Bihar,Siwan,"Chitragupta Nagar, Siwan - BSPCB","10-03-2025 23:00:00",26.2271665,84.3570427,OZONE,15,100,53
India,Chandigarh,Chandigarh,"Sector 22, Chandigarh - CPCC","10-03-2025 23:00:00",30.735567,76.775714,CO,22,130,80
India,Chandigarh,Chandigarh,"Sector-25, Chandigarh - CPCC","10-03-2025 23:00:00",30.751462,76.762879,PM2.5,80,261,135
India,Chandigarh,Chandigarh,"Sector-53, Chandigarh - CPCC","10-03-2025 23:00:00",30.719859,76.738637,PM10,51,187,105
India,Chandigarh,Chandigarh,"Sector-53, Chandigarh - CPCC","10-03-2025 23:00:00",30.719859,76.738637,SO2,6,60,33
India,Chhattisgarh,Bhilai,"32Bungalows, Bhilai - CECB","10-03-2025 23:00:00",21.194815,81.314770,NH3,1,4,3
India,Chhattisgarh,Bhilai,"32Bungalows, Bhilai - CECB","10-03-2025 23:00:00",21.194815,81.314770,SO2,14,49,26
India,Chhattisgarh,Bhilai,"Civic Center, Bhilai - Bhilai Steel Plant","10-03-2025 23:00:00",21.185571,81.343175,NH3,1,2,2
India,Chhattisgarh,Bhilai,"Hathkhoj, Bhilai - CECB","10-03-2025 23:00:00",21.224231,81.408350,PM10,73,142,106
India,Chhattisgarh,Bhilai,"Hathkhoj, Bhilai - CECB","10-03-2025 23:00:00",21.224231,81.408350,NO2,19,100,53
India,Chhattisgarh,Bhilai,"Hathkhoj, Bhilai - CECB","10-03-2025 23:00:00",21.224231,81.408350,OZONE,12,25,22
India,Bihar,Patna,"IGSC Planetarium Complex, Patna - BSPCB","10-03-2025 23:00:00",25.610369,85.132568,CO,14,26,17
India,Bihar,Patna,"IGSC Planetarium Complex, Patna - BSPCB","10-03-2025 23:00:00",25.610369,85.132568,OZONE,25,26,25
India,Bihar,Patna,"Muradpur, Patna - BSPCB","10-03-2025 23:00:00",25.619651,85.147382,SO2,3,9,7
India,Bihar,Patna,"Rajbansi Nagar, Patna - BSPCB","10-03-2025 23:00:00",25.599486,85.113666,NH3,11,13,12
India,Bihar,Patna,"Rajbansi Nagar, Patna - BSPCB","10-03-2025 23:00:00",25.599486,85.113666,CO,19,114,76
India,Bihar,Patna,"Rajbansi Nagar, Patna - BSPCB","10-03-2025 23:00:00",25.599486,85.113666,OZONE,3,28,14
India,Bihar,Patna,"Samanpura, Patna - BSPCB","10-03-2025 23:00:00",25.596727,85.085624,PM2.5,NA,NA,NA
India,Bihar,Patna,"Samanpura, Patna - BSPCB","10-03-2025 23:00:00",25.596727,85.085624,PM10,NA,NA,NA
India,Bihar,Muzaffarpur,"Buddha Colony, Muzaffarpur - BSPCB","10-03-2025 23:00:00",26.11442,85.39813,PM10,118,232,159
India,Bihar,Muzaffarpur,"Buddha Colony, Muzaffarpur - BSPCB","10-03-2025 23:00:00",26.11442,85.39813,CO,21,117,61
India,Bihar,Muzaffarpur,"Buddha Colony, Muzaffarpur - BSPCB","10-03-2025 23:00:00",26.11442,85.39813,OZONE,9,44,27
India,Bihar,Muzaffarpur,"MIT-Daudpur Kothi, Muzaffarpur - BSPCB","10-03-2025 23:00:00",26.1403345,85.3650192,PM2.5,3,297,100
India,Bihar,Muzaffarpur,"Muzaffarpur Collectorate, Muzaffarpur - BSPCB","10-03-2025 23:00:00",26.1209,85.3647,PM2.5,59,265,168
India,Chhattisgarh,Kunjemura,"OP Jindal School, Kunjemura - CECB","10-03-2025 23:00:00",22.126650,83.483212,NH3,2,3,2
India,Chhattisgarh,Milupara,"Govt. Higher Secondary School, Milupara - CECB","10-03-2025 23:00:00",22.1910172,83.5197009,PM2.5,102,307,141
India,Chhattisgarh,Milupara,"Govt. Higher Secondary School, Milupara - CECB","10-03-2025 23:00:00",22.1910172,83.5197009,OZONE,5,12,6
India,Chhattisgarh,Raipur,"AIIMS, Raipur - CECB","10-03-2025 23:00:00",21.258815,81.578979,PM10,68,178,111
India,Bihar,Purnia,"Mariam Nagar, Purnia - BSPCB","10-03-2025 23:00:00",25.366336,87.117468,CO,60,118,88
India,Bihar,Saharsa,"Police Line, Saharsa - BSPCB","10-03-2025 23:00:00",25.892357,86.590325,PM10,NA,NA,NA
India,Bihar,Saharsa,"Police Line, Saharsa - BSPCB","10-03-2025 23:00:00",25.892357,86.590325,SO2,NA,NA,NA
India,Bihar,Samastipur,"DM Office_Kasipur, Samastipur - BSPCB","10-03-2025 23:00:00",25.859655,85.77944,PM10,NA,NA,NA
India,Bihar,Samastipur,"DM Office_Kasipur, Samastipur - BSPCB","10-03-2025 23:00:00",25.859655,85.77944,NO2,NA,NA,NA
India,Bihar,Patna,"DRM Office Danapur, Patna - BSPCB","10-03-2025 23:00:00",25.586562,85.043586,PM10,127,484,194
India,Bihar,Patna,"DRM Office Danapur, Patna - BSPCB","10-03-2025 23:00:00",25.586562,85.043586,CO,38,115,79
India,Bihar,Kishanganj,"SDM Office_Khagra, Kishanganj - BSPCB","10-03-2025 23:00:00",26.0881305,87.93840336,SO2,4,67,23
India,Bihar,Katihar,"Mirchaibari, Katihar - BSPCB","10-03-2025 23:00:00",25.560083,87.553265,SO2,6,20,16
India,Chhattisgarh,Raipur,"Bhatagaon New ISBT, Raipur - CECB","10-03-2025 23:00:00",21.219665,81.630094,NH3,NA,NA,NA
India,Chhattisgarh,Raipur,"Krishak Nagar, Raipur - CECB","10-03-2025 23:00:00",21.237755,81.705301,PM2.5,48,86,62
India,Chhattisgarh,Raipur,"Krishak Nagar, Raipur - CECB","10-03-2025 23:00:00",21.237755,81.705301,NO2,21,44,32
India,Chhattisgarh,Raipur,"Krishak Nagar, Raipur - CECB","10-03-2025 23:00:00",21.237755,81.705301,NH3,7,7,7
India,Chhattisgarh,Raipur,"Siltara Phase-II, Raipur - CECB","10-03-2025 23:00:00",21.371751,81.664929,PM2.5,NA,NA,NA
India,Chhattisgarh,Raipur,"Siltara Phase-II, Raipur - CECB","10-03-2025 23:00:00",21.371751,81.664929,NH3,NA,NA,NA
India,Chhattisgarh,Tumidih,"OP Jindal Industrial Park, Tumidih - CECB","10-03-2025 23:00:00",22.06631475,83.33820077,PM2.5,NA,NA,NA
India,Chhattisgarh,Tumidih,"OP Jindal Industrial Park, Tumidih - CECB","10-03-2025 23:00:00",22.06631475,83.33820077,PM10,NA,NA,NA
India,Chhattisgarh,Tumidih,"OP Jindal Industrial Park, Tumidih - CECB","10-03-2025 23:00:00",22.06631475,83.33820077,NO2,23,93,54
India,Chhattisgarh,Tumidih,"OP Jindal Industrial Park, Tumidih - CECB","10-03-2025 23:00:00",22.06631475,83.33820077,NH3,1,2,2
India,Delhi,Delhi,"Alipur, Delhi - DPCC","10-03-2025 23:00:00",28.815329,77.153010,OZONE,3,17,10
India,Delhi,Delhi,"Anand Vihar, Delhi - DPCC","10-03-2025 23:00:00",28.647622,77.3158090,SO2,10,44,27
India,Delhi,Delhi,"Aya Nagar, Delhi - IMD","10-03-2025 23:00:00",28.4706914,77.1099364,NO2,18,94,41
India,Delhi,Delhi,"Bawana, Delhi - DPCC","10-03-2025 23:00:00",28.776200,77.051074,PM10,147,410,242
India,Delhi,Delhi,"ITO, Delhi - CPCB","10-03-2025 23:00:00",28.628624,77.241060,SO2,8,30,18
India,Delhi,Delhi,"ITO, Delhi - CPCB","10-03-2025 23:00:00",28.628624,77.241060,CO,28,120,75
India,Delhi,Delhi,"Jahangirpuri, Delhi - DPCC","10-03-2025 23:00:00",28.732820,77.170633,PM2.5,75,375,226
India,Delhi,Delhi,"Jawaharlal Nehru Stadium, Delhi - DPCC","10-03-2025 23:00:00",28.580280,77.233829,PM2.5,57,280,159
India,Delhi,Delhi,"Bawana, Delhi - DPCC","10-03-2025 23:00:00",28.776200,77.051074,CO,31,92,54
India,Delhi,Delhi,"Bawana, Delhi - DPCC","10-03-2025 23:00:00",28.776200,77.051074,OZONE,6,156,84
India,Delhi,Delhi,"Burari Crossing, Delhi - IMD","10-03-2025 23:00:00",28.7256504,77.2011573,PM2.5,84,393,223
India,Delhi,Delhi,"Burari Crossing, Delhi - IMD","10-03-2025 23:00:00",28.7256504,77.2011573,PM10,103,388,176
India,Delhi,Delhi,"Dr. Karni Singh Shooting Range, Delhi - DPCC","10-03-2025 23:00:00",28.498571,77.264840,NO2,42,89,60
India,Delhi,Delhi,"Dwarka-Sector 8, Delhi - DPCC ","10-03-2025 23:00:00",28.5710274,77.0719006,PM2.5,85,320,190
India,Delhi,Delhi,"Dwarka-Sector 8, Delhi - DPCC ","10-03-2025 23:00:00",28.5710274,77.0719006,NO2,40,184,90
India,Delhi,Delhi,"CRRI Mathura Road, Delhi - IMD","10-03-2025 23:00:00",28.5512005,77.2735737,NO2,NA,NA,NA
India,Delhi,Delhi,"CRRI Mathura Road, Delhi - IMD","10-03-2025 23:00:00",28.5512005,77.2735737,OZONE,13,126,71
India,Delhi,Delhi,"Jawaharlal Nehru Stadium, Delhi - DPCC","10-03-2025 23:00:00",28.580280,77.233829,NH3,8,14,10
India,Delhi,Delhi,"Dwarka-Sector 8, Delhi - DPCC ","10-03-2025 23:00:00",28.5710274,77.0719006,OZONE,5,119,59
India,Delhi,Delhi,"IGI Airport (T3), Delhi - IMD","10-03-2025 23:00:00",28.5627763,77.1180053,PM2.5,61,323,188
India,Delhi,Delhi,"Pusa, Delhi - IMD","10-03-2025 23:00:00",28.636110,77.173332,PM10,122,194,160
India,Delhi,Delhi,"Pusa, Delhi - IMD","10-03-2025 23:00:00",28.636110,77.173332,CO,28,88,59
India,Delhi,Delhi,"R K Puram, Delhi - DPCC","10-03-2025 23:00:00",28.563262,77.186937,PM2.5,77,329,203
India,Delhi,Delhi,"R K Puram, Delhi - DPCC","10-03-2025 23:00:00",28.563262,77.186937,PM10,75,283,182
India,Delhi,Delhi,"R K Puram, Delhi - DPCC","10-03-2025 23:00:00",28.563262,77.186937,NO2,2,25,11
India,Delhi,Delhi,"Rohini, Delhi - DPCC","10-03-2025 23:00:00",28.732528,77.119920,NH3,10,14,12
India,Delhi,Delhi,"Rohini, Delhi - DPCC","10-03-2025 23:00:00",28.732528,77.119920,CO,24,124,65
India,Delhi,Delhi,"Shadipur, Delhi - CPCB","10-03-2025 23:00:00",28.6514781,77.1473105,CO,36,84,61
India,Delhi,Delhi,"Shadipur, Delhi - CPCB","10-03-2025 23:00:00",28.6514781,77.1473105,OZONE,19,78,41
India,Delhi,Delhi,"Sirifort, Delhi - CPCB","10-03-2025 23:00:00",28.5504249,77.2159377,PM2.5,110,327,230
India,Delhi,Delhi,"NSIT Dwarka, Delhi - CPCB","10-03-2025 23:00:00",28.60909,77.0325413,NO2,11,41,22
India,Delhi,Delhi,"NSIT Dwarka, Delhi - CPCB","10-03-2025 23:00:00",28.60909,77.0325413,NH3,10,12,11
India,Delhi,Delhi,"NSIT Dwarka, Delhi - CPCB","10-03-2025 23:00:00",28.60909,77.0325413,SO2,7,17,14
India,Delhi,Delhi,"NSIT Dwarka, Delhi - CPCB","10-03-2025 23:00:00",28.60909,77.0325413,CO,1,192,62
India,Delhi,Delhi,"NSIT Dwarka, Delhi - CPCB","10-03-2025 23:00:00",28.60909,77.0325413,OZONE,16,44,29
India,Delhi,Delhi,"Najafgarh, Delhi - DPCC","10-03-2025 23:00:00",28.570173,76.933762,NO2,51,110,79
India,Delhi,Delhi,"Nehru Nagar, Delhi - DPCC","10-03-2025 23:00:00",28.567890,77.250515,PM2.5,80,337,223
India,Delhi,Delhi,"Nehru Nagar, Delhi - DPCC","10-03-2025 23:00:00",28.567890,77.250515,PM10,121,306,187
India,Delhi,Delhi,"Nehru Nagar, Delhi - DPCC","10-03-2025 23:00:00",28.567890,77.250515,CO,38,106,74
India,Delhi,Delhi,"North Campus, DU, Delhi - IMD","10-03-2025 23:00:00",28.6573814,77.1585447,PM10,113,273,168
India,Gujarat,Ahmedabad,"Gyaspur, Ahmedabad - IITM","10-03-2025 23:00:00",22.977134,72.553024,PM2.5,79,350,252
India,Gujarat,Ahmedabad,"Gyaspur, Ahmedabad - IITM","10-03-2025 23:00:00",22.977134,72.553024,NH3,2,10,5
India,Gujarat,Ahmedabad,"Maninagar, Ahmedabad - GPCB","10-03-2025 23:00:00",23.002657,72.591912,PM2.5,18,254,83
India,Gujarat,Ahmedabad,"Raikhad, Ahmedabad - IITM","10-03-2025 23:00:00",23.020509,72.579261,PM10,55,169,122
India,Gujarat,Ahmedabad,"Rakhial, Ahmedabad - IITM","10-03-2025 23:00:00",23.016834,72.625775,NO2,13,99,44
India,Delhi,Delhi,"Lodhi Road, Delhi - IITM","10-03-2025 23:00:00",28.588333,77.221667,PM10,125,171,157
India,Delhi,Delhi,"Lodhi Road, Delhi - IMD","10-03-2025 23:00:00",28.5918245,77.2273074,CO,16,54,35
India,Delhi,Delhi,"Major Dhyan Chand National Stadium, Delhi - DPCC","10-03-2025 23:00:00",28.611281,77.237738,OZONE,1,147,72
India,Delhi,Delhi,"Mandir Marg, Delhi - DPCC","10-03-2025 23:00:00",28.636429,77.201067,OZONE,6,33,10
India,Delhi,Delhi,"Okhla Phase-2, Delhi - DPCC","10-03-2025 23:00:00",28.530785,77.271255,PM2.5,77,323,206
India,Delhi,Delhi,"Okhla Phase-2, Delhi - DPCC","10-03-2025 23:00:00",28.530785,77.271255,NO2,53,151,91
India,Delhi,Delhi,"Patparganj, Delhi - DPCC","10-03-2025 23:00:00",28.623763,77.287209,NO2,21,136,57
India,Delhi,Delhi,"Patparganj, Delhi - DPCC","10-03-2025 23:00:00",28.623763,77.287209,NH3,5,8,7
India,Delhi,Delhi,"Punjabi Bagh, Delhi - DPCC","10-03-2025 23:00:00",28.674045,77.131023,PM10,127,276,170
India,Delhi,Delhi,"Sonia Vihar, Delhi - DPCC","10-03-2025 23:00:00",28.710508,77.249485,CO,71,113,101
India,Delhi,Delhi,"Sonia Vihar, Delhi - DPCC","10-03-2025 23:00:00",28.710508,77.249485,OZONE,7,88,40
India,Delhi,Delhi,"Sri Aurobindo Marg, Delhi - DPCC","10-03-2025 23:00:00",28.531346,77.190156,PM10,108,193,144
India,Delhi,Delhi,"Sri Aurobindo Marg, Delhi - DPCC","10-03-2025 23:00:00",28.531346,77.190156,SO2,13,24,18
India,Delhi,Delhi,"Wazirpur, Delhi - DPCC","10-03-2025 23:00:00",28.699793,77.165453,PM10,175,432,287
India,Delhi,Delhi,"Wazirpur, Delhi - DPCC","10-03-2025 23:00:00",28.699793,77.165453,CO,8,132,97
India,Delhi,Delhi,"Wazirpur, Delhi - DPCC","10-03-2025 23:00:00",28.699793,77.165453,OZONE,2,197,95
India,Delhi,Delhi,"Pusa, Delhi - DPCC","10-03-2025 23:00:00",28.639652,77.146275,PM2.5,67,304,160
India,Delhi,Delhi,"Pusa, Delhi - DPCC","10-03-2025 23:00:00",28.639652,77.146275,PM10,105,226,145
India,Gujarat,Ahmedabad,"SVPI Airport Hansol, Ahmedabad - IITM","10-03-2025 23:00:00",23.076793,72.627874,PM10,46,142,96
India,Gujarat,Vatva,"Phase-4 GIDC, Vatva - GPCB","10-03-2025 23:00:00",22.969611,72.643500,PM10,69,359,164
India,Gujarat,Vatva,"Phase-4 GIDC, Vatva - GPCB","10-03-2025 23:00:00",22.969611,72.643500,NO2,33,90,57
India,Gujarat,Vatva,"Phase-4 GIDC, Vatva - GPCB","10-03-2025 23:00:00",22.969611,72.643500,NH3,1,12,6
India,Gujarat,Vatva,"Phase-4 GIDC, Vatva - GPCB","10-03-2025 23:00:00",22.969611,72.643500,SO2,8,23,14
India,Haryana,"Charkhi Dadri","Mini Secretariat, Charkhi Dadri - HSPCB","10-03-2025 23:00:00",28.593883,76.270653,PM10,91,138,113
India,Haryana,"Charkhi Dadri","Mini Secretariat, Charkhi Dadri - HSPCB","10-03-2025 23:00:00",28.593883,76.270653,NO2,13,25,18
India,Haryana,Faridabad,"Sector 11, Faridabad - HSPCB","10-03-2025 23:00:00",28.376058,77.315741,SO2,8,9,9
India,Haryana,Faridabad,"Sector 11, Faridabad - HSPCB","10-03-2025 23:00:00",28.376058,77.315741,CO,49,52,50
India,Gujarat,Gandhinagar,"Sector-10, Gandhinagar - GPCB","10-03-2025 23:00:00",23.221714,72.654328,PM10,31,297,115
India,Gujarat,Gandhinagar,"Sector-10, Gandhinagar - GPCB","10-03-2025 23:00:00",23.221714,72.654328,NO2,24,25,24
India,Gujarat,Gandhinagar,"Sector-10, Gandhinagar - GPCB","10-03-2025 23:00:00",23.221714,72.654328,NH3,3,3,3
India,Gujarat,Gandhinagar,"Sector-10, Gandhinagar - GPCB","10-03-2025 23:00:00",23.221714,72.654328,OZONE,22,23,22
India,Gujarat,Surat,"Science Center, Surat - SMC","10-03-2025 23:00:00",21.170046,72.795405,SO2,43,54,47
India,Gujarat,Vapi,"Phase-1 GIDC, Vapi - GPCB","10-03-2025 23:00:00",20.362421,72.918013,PM2.5,NA,NA,NA
India,Gujarat,Vapi,"Phase-1 GIDC, Vapi - GPCB","10-03-2025 23:00:00",20.362421,72.918013,NO2,NA,NA,NA
India,Gujarat,Vapi,"Phase-1 GIDC, Vapi - GPCB","10-03-2025 23:00:00",20.362421,72.918013,NH3,NA,NA,NA
India,Jammu_and_Kashmir,Srinagar,"Rajbagh, Srinagar - JKSPCB","10-03-2025 23:00:00",34.066206,74.819820,PM10,NA,NA,NA
India,Jammu_and_Kashmir,Srinagar,"Rajbagh, Srinagar - JKSPCB","10-03-2025 23:00:00",34.066206,74.819820,NO2,NA,NA,NA
India,Jammu_and_Kashmir,Srinagar,"Rajbagh, Srinagar - JKSPCB","10-03-2025 23:00:00",34.066206,74.819820,SO2,NA,NA,NA
India,Jammu_and_Kashmir,Srinagar,"Rajbagh, Srinagar - JKSPCB","10-03-2025 23:00:00",34.066206,74.819820,CO,NA,NA,NA
India,Jharkhand,Dhanbad,"Sardar Patel Nagar, Dhanbad - JSPCB","10-03-2025 23:00:00",23.80569,86.44268,PM10,108,418,166
India,Jharkhand,Dhanbad,"Sardar Patel Nagar, Dhanbad - JSPCB","10-03-2025 23:00:00",23.80569,86.44268,NO2,125,125,125
India,Gujarat,Ankleshwar,"GIDC, Ankleshwar - GPCB","10-03-2025 23:00:00",21.613267,73.010555,NO2,77,112,97
India,Gujarat,Ankleshwar,"GIDC, Ankleshwar - GPCB","10-03-2025 23:00:00",21.613267,73.010555,OZONE,32,42,37
India,Gujarat,Gandhinagar,"GIFT City, Gandhinagar - IITM","10-03-2025 23:00:00",23.163798,72.677768,PM10,NA,NA,NA
India,Gujarat,Gandhinagar,"GIFT City, Gandhinagar - IITM","10-03-2025 23:00:00",23.163798,72.677768,NO2,NA,NA,NA
India,Haryana,Panchgaon,"Amity University, Panchgaon - IITM","10-03-2025 23:00:00",28.3153,76.9143,PM2.5,69,110,85
India,"Himachal Pradesh",Baddi,"HIMUDA Complex Phase-1, Baddi - HPPCB","10-03-2025 23:00:00",30.943887,76.801991,PM10,45,257,120
India,Gujarat,Ahmedabad,"Sardar Vallabhbhai Patel Stadium, Ahmedabad - IITM","10-03-2025 23:00:00",23.043070,72.562968,PM10,54,199,121
India,Gujarat,Ankleshwar,"GIDC, Ankleshwar - GPCB","10-03-2025 23:00:00",21.613267,73.010555,PM2.5,54,246,135
India,Jharkhand,Dhanbad,"Sardar Patel Nagar, Dhanbad - JSPCB","10-03-2025 23:00:00",23.80569,86.44268,OZONE,19,53,32
India,Karnataka,Belgaum,"Ramteerth Nagar, Belgaum - KSPCB","10-03-2025 23:00:00",15.888653,74.541751,OZONE,19,20,19
India,Gujarat,Ahmedabad,"Sardar Vallabhbhai Patel Stadium, Ahmedabad - IITM","10-03-2025 23:00:00",23.043070,72.562968,PM2.5,47,317,154
India,Haryana,Gurugram,"NISE Gwal Pahari, Gurugram - IMD","10-03-2025 23:00:00",28.422681,77.148944,PM2.5,73,304,165
India,Karnataka,Bengaluru,"Hebbal, Bengaluru - KSPCB","10-03-2025 23:00:00",13.029152,77.585901,OZONE,8,34,13
India,Karnataka,Bengaluru,"Hombegowda Nagar, Bengaluru - KSPCB","10-03-2025 23:00:00",12.938539,77.590100,OZONE,18,54,33
India,Karnataka,Bengaluru,"Jayanagar 5th Block, Bengaluru - KSPCB","10-03-2025 23:00:00",12.920984,77.584908,NH3,1,1,1
India,Karnataka,Bengaluru,"Jayanagar 5th Block, Bengaluru - KSPCB","10-03-2025 23:00:00",12.920984,77.584908,CO,6,38,23
India,Karnataka,Bengaluru,"Jayanagar 5th Block, Bengaluru - KSPCB","10-03-2025 23:00:00",12.920984,77.584908,OZONE,15,37,21
India,Karnataka,Bengaluru,"Jigani, Bengaluru - KSPCB","10-03-2025 23:00:00",12.7816279,77.6299145,PM10,59,106,82
India,Karnataka,Bengaluru,"Jigani, Bengaluru - KSPCB","10-03-2025 23:00:00",12.7816279,77.6299145,CO,36,53,37
India,Karnataka,Bengaluru,"Kasturi Nagar, Bengaluru - KSPCB","10-03-2025 23:00:00",13.003872,77.664217,PM2.5,35,79,44
India,Karnataka,Haveri,"Ashwini Nagar, Haveri - KSPCB","10-03-2025 23:00:00",14.791800,75.389600,PM10,27,41,34
India,Karnataka,Hubballi,"Lingaraj Nagar, Hubballi - KSPCB","10-03-2025 23:00:00",15.3714823,75.1160168,PM2.5,39,44,40
India,Karnataka,Hubballi,"Lingaraj Nagar, Hubballi - KSPCB","10-03-2025 23:00:00",15.3714823,75.1160168,CO,20,125,22
India,Karnataka,Hubballi,"Lingaraj Nagar, Hubballi - KSPCB","10-03-2025 23:00:00",15.3714823,75.1160168,OZONE,13,35,30
India,Karnataka,Kalaburagi,"Lal Bahadur Shastri Nagar, Kalaburagi - KSPCB","10-03-2025 23:00:00",17.321993,76.822628,NO2,12,13,12
India,Karnataka,Kalaburagi,"Lal Bahadur Shastri Nagar, Kalaburagi - KSPCB","10-03-2025 23:00:00",17.321993,76.822628,SO2,39,53,47
India,Karnataka,Kalaburagi,"Mahatma Basaveswar Colony, Kalaburgi - KSPCB","10-03-2025 23:00:00",17.336318,76.847397,NO2,10,20,12
India,Karnataka,Bengaluru,"Sanegurava Halli, Bengaluru - KSPCB","10-03-2025 23:00:00",12.990328,77.5431385,PM10,36,41,38
India,Karnataka,Bengaluru,"Sanegurava Halli, Bengaluru - KSPCB","10-03-2025 23:00:00",12.990328,77.5431385,NO2,21,35,25
India,Karnataka,Bengaluru,"Sanegurava Halli, Bengaluru - KSPCB","10-03-2025 23:00:00",12.990328,77.5431385,SO2,7,8,7
India,Karnataka,Bengaluru,"Shivapura_Peenya, Bengaluru - KSPCB","10-03-2025 23:00:00",13.0246342,77.5080115,PM2.5,38,60,49
India,Karnataka,Bengaluru,"Shivapura_Peenya, Bengaluru - KSPCB","10-03-2025 23:00:00",13.0246342,77.5080115,PM10,NA,NA,NA
India,Karnataka,Bengaluru,"Silk Board, Bengaluru - KSPCB","10-03-2025 23:00:00",12.917348,77.622813,PM10,77,151,106
India,Karnataka,Bengaluru,"Silk Board, Bengaluru - KSPCB","10-03-2025 23:00:00",12.917348,77.622813,NH3,2,25,8
India,Karnataka,Bengaluru,"Silk Board, Bengaluru - KSPCB","10-03-2025 23:00:00",12.917348,77.622813,SO2,NA,NA,NA
India,Karnataka,Chikkaballapur,"Chikkaballapur Rural, Chikkaballapur - KSPCB","10-03-2025 23:00:00",13.428828,77.731418,PM2.5,18,112,53
India,Karnataka,Chikkaballapur,"Chikkaballapur Rural, Chikkaballapur - KSPCB","10-03-2025 23:00:00",13.428828,77.731418,NO2,13,23,16
India,Karnataka,Chikkaballapur,"Chikkaballapur Rural, Chikkaballapur - KSPCB","10-03-2025 23:00:00",13.428828,77.731418,SO2,9,18,12
India,Karnataka,Karwar,"KHB Colony, Karwar - KSPCB","10-03-2025 23:00:00",14.816666,74.141003,CO,9,10,10
India,Karnataka,Kolar,"Tamaka Ind. Area, Kolar - KSPCB","10-03-2025 23:00:00",13.1276288,78.1570122,OZONE,24,24,24
India,Karnataka,Bengaluru,"Kasturi Nagar, Bengaluru - KSPCB","10-03-2025 23:00:00",13.003872,77.664217,NH3,2,2,2
India,Karnataka,Bengaluru,"Peenya, Bengaluru - CPCB","10-03-2025 23:00:00",13.0270199,77.494094,NO2,20,25,22
India,Karnataka,Karwar,"KHB Colony, Karwar - KSPCB","10-03-2025 23:00:00",14.816666,74.141003,PM2.5,32,89,62
India,Karnataka,Karwar,"KHB Colony, Karwar - KSPCB","10-03-2025 23:00:00",14.816666,74.141003,PM10,38,101,72
India,Karnataka,Bidar,"Naubad, Bidar - KSPCB","10-03-2025 23:00:00",17.930306,77.482194,SO2,NA,NA,NA
India,Karnataka,Bidar,"Naubad, Bidar - KSPCB","10-03-2025 23:00:00",17.930306,77.482194,CO,20,36,31
India,Karnataka,Chamarajanagar,"Urban, Chamarajanagar - KSPCB","10-03-2025 23:00:00",11.55358,76.55521,SO2,NA,NA,NA
India,"Madhya Pradesh",Dewas,"Bhopal Chauraha, Dewas - MPPCB","10-03-2025 23:00:00",22.9682591,76.064118,PM10,48,161,83
India,"Madhya Pradesh",Dewas,"Bhopal Chauraha, Dewas - MPPCB","10-03-2025 23:00:00",22.9682591,76.064118,NO2,44,140,95
India,"Madhya Pradesh",Gwalior,"City Center, Gwalior - MPPCB","10-03-2025 23:00:00",26.203442,78.193251,PM2.5,16,66,35
